State,County,Population,Total_Housing_Units,Residing_in_Group_Quarters,No_Vehicle_Half_Mile,No_Vehicle_1_Mile,No_Vehicle_10_Miles,No_Vehicle_20_Miles,Children_Half_Mile,Children_1_Mile,Children_10_Miles,Children_20_Miles,Low_Income_Half_Mile,Low_Income_1_Mile,Low_Income_10_Miles,Low_Income_20_Miles,Population_Half_Mile,Population_1_Mile,Population_10_Miles,Population_20_Miles,Seniors_Half_Mile,Seniors_1_Mile,Seniors_10_Miles,Seniors_20_Miles,CountyFIPS,Latitude,Longitude
Alabama,Autauga County,54571,20221,0.8337761814883363,1.9149365047369482,1.5282842535412582,0.4068094775613421,0.0,24.33710212383867,18.27527441314984,2.1971376738560773,0.0,28.43634897656264,22.112477323120338,4.227520111414488,0.0,90.70202122006194,68.5785490461967,9.38044016052482,0.0,10.875739861831375,8.050063220391783,1.2955599127741841,0.0,1001.0,32.5322367,-86.6464395
Alabama,Baldwin County,182265,73180,1.265739445313143,1.194963377499794,0.9069212410501194,0.01755685403121828,0.0,21.001289331467916,16.806847173072175,0.28310427125339477,0.0,26.39947329437906,21.314020793898994,0.46415932845033325,0.0,90.86549803857021,72.6645269250816,1.2662880970016186,0.0,14.945820645763035,11.97596905604477,0.2139741585054728,0.0,1003.0,30.6592183,-87.7460666
Alabama,Barbour County,27457,9820,11.629092763229778,2.702407400662855,1.9849218778453581,0.732053756783334,0.0,18.00269512328368,13.47925847689114,2.880868266744364,0.0,43.34413810685799,33.834723385657576,8.886622719160869,0.0,86.54259387405762,69.2246057471683,16.910077575845868,0.0,12.19361182940598,9.239902392832429,2.2908547911279458,0.0,1005.0,31.8702531,-85.4051035
Alabama,Bibb County,22915,7953,9.705433122408902,1.9245036002618372,1.3615535675321842,0.0,0.0,21.05171285184377,18.31987780929522,0.39275583678813003,0.0,36.4346497927122,28.278420248745363,0.445123281693214,0.0,91.59502509273402,76.63102771110626,1.5928431158629717,0.0,11.477198341697578,9.871263364608335,0.31420466943050407,0.0,1007.0,33.0158929,-87.1271475
Alabama,Blount County,57322,21578,0.8530756079690172,1.434004396217857,1.3118872335229057,0.0,0.0,23.695963155507485,21.937476012700184,0.0,0.0,34.552178919088654,31.72952792993964,0.0,0.0,95.83231569031088,88.70590698161264,0.0,0.0,13.624786294965283,12.410592791598338,0.0,0.0,1009.0,33.9773575,-86.56644
Alabama,Bullock County,10914,3745,15.484698552318124,3.967381345061389,3.0602895363752975,0.7330034817665384,0.0,20.55158512002932,17.152281473337,5.1310243723657685,0.0,42.844053509254174,36.63184900128276,11.608942642477551,0.0,92.24848818031886,79.79659153380979,23.694337548103352,0.0,11.957119296316659,10.243723657687374,4.471321238775884,0.0,1011.0,32.1017589,-85.7172613
Alabama,Butler County,20947,8491,1.5897264524752948,2.5874826944192484,1.561082732610875,0.10980092614694227,0.0,20.93855922089082,14.388695278560176,1.2889673938988877,0.0,41.280374277939565,28.457535685301,2.6543180407695615,0.0,86.2462405117678,62.357378144841746,6.3684537165226525,0.0,13.634410655463789,10.178068458490475,1.2364539074807848,0.0,1013.0,31.751667,-86.6819689
Alabama,Calhoun County,118572,47331,2.461795364841615,1.9684242485578385,1.168910029349256,0.0,0.0,19.92375940356914,14.026076982761529,0.0,0.0,35.69982795263637,23.354586242957865,0.0,0.0,87.0053638295719,61.57355868164491,0.0,0.0,12.239820530985392,8.515501130115036,0.0,0.0,1015.0,33.7705162,-85.8279089
Alabama,Chambers County,34215,13933,1.3385941838374982,2.411223147742218,1.7740756977933654,0.03507233669443227,0.0,19.032588046178578,14.055238930293731,0.33610989332164254,0.0,37.64138535729943,26.894636855180476,0.8534268595645186,0.0,84.50387257051001,63.615373374251064,1.987432412684495,0.0,13.707438258073946,10.203127283355254,0.42086804033318714,0.0,1017.0,32.9155039,-85.3940321
Alabama,Cherokee County,25989,10626,1.1158567086074878,1.5275693562661126,1.3890492131286314,0.0038477817538189237,0.0,20.716456962561082,19.839162722690368,0.07310785332255955,0.0,39.78991111624149,37.954519219669855,0.1308245796298434,0.0,96.97949132325215,92.64688906845203,0.35014813959752206,0.0,17.44199469006118,16.526222632652278,0.04617338104582708,0.0,1019.0,34.0695153,-85.6542417
Alabama,Chilton County,43643,16558,0.9004880507756111,1.718488646518342,1.4160346447311138,0.02520450014893568,0.0,23.92365327773068,21.416951172009256,0.22684050134042116,0.0,38.83555209311917,34.44309511261829,0.4490983662901267,0.0,94.53062346768095,84.55880668148386,1.0837935064042343,0.0,12.579336892514265,11.023531837866324,0.18559677382398093,0.0,1021.0,32.8540514,-86.7266071
Alabama,Choctaw County,13859,5866,0.9308030882459052,3.8675229093008157,3.420160184717512,1.5369074247781227,0.0,21.90634244895014,20.253986579118262,5.35392163936792,0.0,45.59492026841763,42.40565697380763,13.045674291074391,0.0,96.55097770401905,88.93859585828703,24.33797532289487,0.0,17.447146258748827,15.54224691536186,3.9036005483801137,0.0,1023.0,31.9909539,-88.2488894
Alabama,Clarke County,25833,10337,1.0838849533542367,3.9561800797429645,3.452947779971354,0.6464599543219912,0.0,23.07900747106414,19.6802539387605,3.468431850733558,0.0,42.30248132233964,36.4146634150118,7.358804629737158,0.0,92.90829559091085,79.16618278945535,14.388572755777492,0.0,14.864707931715248,12.25951302597453,2.434870127356482,0.0,1025.0,31.6855211,-87.8186244
Alabama,Clay County,13932,5670,1.8303186907838072,1.3422337065747918,0.9618145277060005,0.03588860178007465,0.0,20.241171403962102,17.0686190066035,1.5575653172552397,0.0,38.78122308354867,32.03416594889463,2.9715762273901807,0.0,88.80275624461672,75.91874820556991,7.019810508182601,0.0,14.73585989089865,12.446167097329889,1.2417456215905829,0.0,1027.0,33.2703999,-85.8635254
Alabama,Cleburne County,14972,5891,1.1888859203847182,1.4360138925995192,1.3024312049158429,0.0734704782260219,0.0,21.914239914507082,20.070798824472348,1.4226556238311514,0.0,37.3764360138926,33.09511087363078,2.023777718407694,0.0,91.1301095378039,83.21533529254609,5.951108736307774,0.0,14.066257013091105,12.616884851723217,0.8549292011755277,0.0,1029.0,33.6719637,-85.5161261
Alabama,Coffee County,49948,19849,1.201249299271242,1.9199967966685352,1.0130535757187475,0.06206454712901417,0.0,21.10194602386482,16.14479058220549,1.1912388884439817,0.0,28.127252342436133,20.164971570433252,1.6296948826779851,0.0,87.25474493473212,67.21590454072235,4.879074237206695,0.0,12.302794906702971,9.131496756626891,0.8168495235044447,0.0,1031.0,31.402258,-85.9896022
Alabama,Colbert County,54428,22773,0.8708752847798926,2.2874255897699713,1.4698317042698612,0.022047475564047916,0.0,19.491805688248697,14.872859557580655,0.38766811200117585,0.0,31.434188285441316,22.03828911589623,0.5658852061438965,0.0,87.87756301903433,66.60174909972808,1.8611743955317117,0.0,15.12456823693687,11.13213787021386,0.3252002645697068,0.0,1033.0,34.703112,-87.8014569
Alabama,Conecuh County,13228,5625,0.34018748110069547,2.5854248563652855,1.9352887813728454,0.725733293014817,0.0,20.87239189597823,16.04928938615059,5.125491381917145,0.0,53.4699123072271,42.493196250377984,13.297550650136076,0.0,92.80314484426974,76.64801935288781,26.360749924402782,0.0,17.047172664045963,14.650740852736618,5.609313577260357,0.0,1035.0,31.4309257,-86.9887221
Alabama,Coosa County,11539,4794,1.0746165178958316,1.7245861859779876,1.45593205650403,0.2339890805095762,0.0,19.412427420053728,18.32047837767571,4.003813155386082,0.0,38.64286333304446,35.687667908830925,7.712973394574919,0.0,95.11222809602219,89.70448045757865,22.592945662535747,0.0,16.188577866366234,14.992633677095068,4.541121414333998,0.0,1037.0,32.9314453,-86.2434818
Alabama,Covington County,37765,15531,1.5225738117304382,1.7847213027935918,1.1968754137428836,0.09532636038660135,0.0,20.135045677214354,15.705017873692572,1.570236991923739,0.0,35.874486958824306,26.344498874619354,2.6797299086455713,0.0,89.10366741692043,70.36409373758772,7.782338143783927,0.0,16.216073083542963,12.543360254203629,1.527869720640805,0.0,1039.0,31.2439873,-86.4487206
Alabama,Crenshaw County,13906,5652,0.9492305479649071,2.3874586509420395,2.0422839062275275,0.6400115058248238,0.0,21.249820221487127,18.394937437077523,7.263051920034518,0.0,39.30677405436502,34.9561340428592,13.504961886955272,0.0,89.17733352509708,77.77218466848842,29.490867251546092,0.0,13.42585934129153,11.333237451459802,4.156479217603912,0.0,1041.0,31.7303106,-86.3200384
Alabama,Cullman County,80406,31864,1.3133348257592719,1.4862074969529637,1.1031515061065094,0.017411635947566104,0.0,21.99587095490386,18.93017933985026,0.3096783822102828,0.0,38.16506230878293,32.01502375444619,0.5708529214237743,0.0,94.16710195756536,80.42310275352585,1.3369649031166828,0.0,14.704126557719574,12.101086983558442,0.19152799542322713,0.0,1043.0,34.1319229,-86.8692666
Alabama,Dale County,50251,20065,1.824839306680464,1.982050108455553,1.2497263736045054,0.009950050745258801,0.0,23.159738114664385,20.075222383634156,0.36616186742552387,0.0,38.37535571431414,31.543650872619448,0.5532228214363893,0.0,93.59415733020239,80.72078167598656,1.3452468607589898,0.0,12.558954050665658,10.586853992955364,0.21094107579948657,0.0,1045.0,31.4306536,-85.609476
Alabama,Dallas County,43820,17064,1.79370150616157,4.210406207211319,1.9078046554084893,0.5248744865358284,0.006846188954815152,21.73664993153811,13.710634413509812,2.234139662254678,0.05248744865358284,46.499315381104516,27.104062072113187,6.081697854860795,0.1574623459607485,82.83432222729348,54.591510725696025,9.657690552259242,0.21223185759926974,11.743496120492926,7.852578731172981,1.7822911912368782,0.027384755819260607,1047.0,32.3335263,-87.11436
Alabama,DeKalb County,71109,26842,1.099720147941892,1.8169289400779085,1.4920755459927717,0.0,0.0,24.054620371542278,20.54873504057152,0.0,0.0,45.293844661013374,37.882687142274534,0.0,0.0,93.53668312028013,81.13318989157492,0.0,0.0,12.845068837981128,10.901573640467452,0.0,0.0,1049.0,34.4609148,-85.8040207
Alabama,Elmore County,79303,28301,6.913988121508644,1.5295764346872123,1.3240356606937946,0.0,0.0,22.168139919044677,19.04467674615084,0.008826904404625299,0.0,26.343265702432443,22.36359280228995,0.006304931717589499,0.0,93.94474357842705,82.53155618324654,0.02900268590091169,0.0,11.033630505781622,9.89369885124144,0.0037829590305536987,0.0,1051.0,32.597229,-86.1427347
Alabama,Escambia County,38319,14157,8.348338944126935,1.367467835799473,0.9238236905973538,0.083509486155693,0.0,20.04227667736632,14.851640178501526,1.2552519637777604,0.0,45.63532451264386,34.601633654322924,2.734935671598946,0.0,90.2241707768992,69.05190636498865,5.548161486468853,0.0,13.58333985751194,9.820193637621024,0.8324851901145646,0.0,1053.0,31.1222867,-87.1684097
Alabama,Etowah County,104430,42036,1.9965527147371445,1.785885282007086,1.1500526668581825,0.0,0.0,20.218328066647516,16.184046729866896,0.0,0.0,32.87465287752562,24.914296658048453,0.0,0.0,87.91630757445179,71.10791918031218,0.0,0.0,13.931820358134637,11.47084171215168,0.0,0.0,1055.0,34.0476407,-86.0342629
Alabama,Fayette County,17241,7100,1.6878371324169132,2.169247723449916,1.6936372600197207,0.017400382808421787,0.0,19.308624789745373,15.625543761962762,0.22040484890667594,0.0,38.91885621483673,32.53291572414593,0.42920944260773736,0.0,87.59352705759527,71.83458036076794,0.9454207992575837,0.0,15.463140189084159,12.725479960559133,0.13340293486456703,0.0,1057.0,33.7161568,-87.7642923
Alabama,Franklin County,31704,12286,0.8579359071410547,1.4446126671713349,1.0061821852132222,0.034695937421145594,0.0,20.227731516527882,15.972747918243755,0.5677517032551098,0.0,38.10560181680545,29.885818824123138,1.1165783497350492,0.0,83.28602069139541,66.84014635377238,2.8166792833711836,0.0,12.597779460005047,9.989275801160737,0.4384304819581126,0.0,1059.0,34.4419892,-87.8428144
Alabama,Geneva County,26790,10920,0.8547965658827921,1.6312056737588652,1.351250466592012,0.0,0.0,18.809257185516984,16.517357222844346,0.007465472191116087,0.0,36.67039940276223,31.750653228816724,0.014930944382232175,0.0,83.74393430384471,73.39305711086226,0.02986188876446435,0.0,13.837252706233668,11.825307950727884,0.0,0.0,1061.0,31.0923822,-85.8210224
Alabama,Greene County,9045,3764,0.4975124378109453,4.853510226644555,4.223327805417357,1.625207296849088,0.0,21.82421227197347,19.55776672194583,8.070757324488667,0.0,57.65616362631288,52.64787175234936,22.75290215588723,0.0,88.89994472084024,79.53565505804312,32.84687672747374,0.0,13.98562741846324,12.139303482587065,5.129906025428413,0.0,1063.0,32.8444965,-87.9642005
Alabama,Hale County,15760,6273,2.1192893401015227,3.5723350253807107,3.026649746192893,0.5901015228426396,0.0,21.941624365482234,20.336294416243657,3.6357868020304567,0.0,44.2258883248731,40.253807106598984,6.973350253807106,0.0,88.4517766497462,82.51269035532995,15.158629441624367,0.0,12.595177664974619,11.751269035532994,2.4111675126903553,0.0,1065.0,32.7527958,-87.6230608
Alabama,Henry County,17302,6994,1.1501560513235465,1.9766500982545372,1.6876661657611838,0.017339035949601202,0.0,20.841521211420645,17.159865911455324,0.341001040342157,0.0,37.93203097907757,32.05987747081262,0.6588833660848458,0.0,92.42862096867415,77.47659230146805,1.3871228759680962,0.0,16.344931221824066,13.397295110391862,0.19650907409548027,0.0,1067.0,31.5169779,-85.2399712
Alabama,Houston County,101547,40969,1.3944281958108067,1.7400809477384858,0.8597004342816628,0.017725782150137374,0.0,19.679557249352516,12.54985376229726,0.17824258717638136,0.0,30.92164219523964,18.90060760042148,0.3190640787024727,0.0,79.92161265226939,51.83904989807675,0.6962293322303957,0.0,11.36518065526308,7.237042945631086,0.0955222704757403,0.0,1069.0,31.1581831,-85.2964111
Alabama,Jackson County,53227,21513,1.121611212354632,1.6965074116519812,1.3808781257632403,0.05824111822947001,0.0,21.261765645255227,18.14680519285325,1.2737896180509891,0.0,43.295695793488264,36.99250380446014,2.635880286320852,0.0,94.73575441035564,81.12612020215305,5.7207808067334245,0.0,15.499652432036374,12.980254382174461,0.9243429086741691,0.0,1071.0,34.764114,-85.9800556
Alabama,Jefferson County,658466,263568,2.395567880498006,2.431408759146258,1.2762997633894537,0.007441538363408286,0.0,19.291808536811317,11.247961170356556,0.09476571303605653,0.0,28.741651049560645,15.996270118730504,0.1807230745399155,0.0,80.78442926438115,46.60696224254555,0.6744463647325754,0.0,10.676329529542908,6.219759258640537,0.06834065843946385,0.0,1073.0,33.5534439,-86.8965359
Alabama,Lamar County,14564,6103,1.489975281516067,2.622905795111233,2.0324086789343587,0.006866245536940401,0.0,18.86157648997528,16.300466904696513,0.12359241966492722,0.0,39.46031310079648,34.57154627849492,0.41197473221642406,0.0,87.53089810491623,76.40071408953584,0.6110958527876957,0.0,16.527053007415546,14.707497940126338,0.08239494644328481,0.0,1075.0,33.7870852,-88.0874309
Alabama,Lauderdale County,92709,38680,2.0397156694603544,2.300747500242695,0.9071395441650757,0.02157287857705293,0.0,18.756539278818668,13.757024668586654,0.1833694679049499,0.0,32.03788197478131,20.12210249274612,0.4325362154699112,0.0,87.02930675554693,61.53124292139922,0.8931171730899914,0.0,14.354593405171018,9.783300434693503,0.14561693039510726,0.0,1077.0,34.9041221,-87.6509966
Alabama,Lawrence County,34339,13654,0.666880223652407,2.064707766679286,1.7065144587786483,0.16307988001980256,0.0,22.52540842773523,20.845103235388336,1.5958531116223535,0.0,35.38250968286788,32.08596639389615,2.856810041061184,0.0,96.59861964530127,89.35321354727861,6.447479542211481,0.0,13.730743469524448,12.405719444363552,0.95809429511634,0.0,1079.0,34.529776,-87.3218651
Alabama,Lee County,140247,55682,3.1444522877494703,1.4531505130234514,0.6795154263549309,0.009269360485429277,0.0,20.05033975771318,14.14005290665754,0.14902279549651687,0.0,32.91478605602972,18.078105057505685,0.22531676256889632,0.0,84.88737727010204,55.159825165600694,0.5682831005297796,0.0,8.076465093727494,5.458227270458548,0.062033412479411326,0.0,1081.0,32.6040644,-85.3530477
Alabama,Limestone County,82782,31446,3.511632963687758,1.3457031721871904,1.0884008600903576,0.0036239762267159525,0.0,22.655891377352564,19.768790316735522,0.09663936604575873,0.0,30.395496605542267,26.429658621439444,0.0688555483076031,0.0,94.26807760141094,82.04319779662245,0.3732695513517431,0.0,11.420357082457539,9.820975574400231,0.04831968302287937,0.0,1083.0,34.8102387,-86.9813995
Alabama,Lowndes County,11299,4352,0.8496327108593681,4.9827418355606685,4.717231613417116,2.053279051243473,0.0,23.88706965218161,23.125940348703423,10.363749004336666,0.0,52.898486591733786,50.880608903442784,20.214178245862467,0.0,97.51305425258873,94.30923090538987,39.03885299584034,0.0,13.992388706965217,13.505619966368707,5.1420479688468,0.0,1085.0,32.147888,-86.6505859
Alabama,Macon County,21452,8499,8.260302069737087,4.633600596680962,3.7525638635092298,0.5407421219466716,0.0,19.58325564049972,17.61141152340108,2.428677978743241,0.0,47.97687861271676,40.84001491702406,5.30486667909752,0.0,95.22655230281559,82.56106656721984,10.260115606936417,0.0,13.248181987693455,11.924296102927466,1.4590714152526572,0.0,1087.0,32.3870267,-85.692887
Alabama,Madison County,334811,134700,2.4019521461361784,1.5492322534205865,0.7831283918389779,0.0008960279082825833,0.0,19.951853433728285,12.151034464220112,0.024192753523629748,0.0,23.62616520962573,13.243889836355436,0.029867596942752775,0.0,82.76460450821507,49.50016576516303,0.1033418854219246,0.0,9.835698349217918,5.575085645334233,0.015232474440803915,0.0,1089.0,34.7642377,-86.5510802
Alabama,Marengo County,21027,8535,1.2079707043325247,2.839206734198887,1.7976886859751746,0.44228848623198747,0.0,19.474960764731062,14.49089266181576,4.7557901745375,0.0,39.36843106482142,29.733200171208445,9.820706710419937,0.0,82.23236790792791,61.05959005088696,18.785371189423124,0.0,13.929709421220334,10.048984638797737,3.0579730822276123,0.0,1091.0,32.2475911,-87.791091
Alabama,Marion County,30776,12651,2.8203795165063683,1.6376397192617624,1.1534962308292176,0.02274499610085781,0.0,19.80764231868989,16.847543540421107,0.6303613205094879,0.0,41.67858071224331,35.15076683129711,1.026774109695867,0.0,89.75175461398493,75.3379256563556,3.0283337665713543,0.0,15.996230829217573,12.587730699246165,0.6076163244086301,0.0,1093.0,34.1382194,-87.881551
Alabama,Marshall County,93019,35810,1.1255764951246519,1.443791053440695,0.8879906255711199,0.0,0.0,21.392403702469387,16.08058568679517,0.0,0.0,36.79140820692547,27.299798965802687,0.0,0.0,86.02221051613111,65.49629645556284,0.0,0.0,12.709231447338714,9.361528289919264,0.0,0.0,1095.0,34.3095637,-86.3216681
Alabama,Mobile County,412992,158435,1.6484580815124747,1.8087517433751743,0.821565550906555,0.00048427088176042154,0.0,19.6224139934914,12.049143809081048,0.030509065550906555,0.0,30.65434681543468,17.765477297381064,0.030751200991786767,0.0,77.53370525337053,46.836984735781805,0.20508871842553852,0.0,9.876704633503797,5.761370680303735,0.04334224391755773,0.0,1097.0,30.6845725,-88.1965682
Alabama,Monroe County,23068,9214,0.9970521935148257,4.014218831281429,3.420322524709554,1.179122594069707,0.0,23.66481706259754,20.430899947979885,4.395699670539275,0.0,48.62580197676435,42.18397780475117,11.327379920235824,0.008670019074041963,92.03658748049246,79.18328420322524,18.618865961505115,0.013005028611062945,13.906710594763307,11.691520721345587,3.203572047858505,0.004335009537020981,1099.0,31.5803324,-87.3832656
Alabama,Montgomery County,229363,89981,3.9596621948614206,2.683519137785955,1.14578201366393,0.03749514961000685,0.0,19.281662691890148,9.033715115341185,0.41201065559833105,0.0,32.26283227896391,13.25671533769614,0.8907277982935348,0.0,78.2288337700501,36.36462725025397,2.249708976600411,0.0,9.090393829867939,3.9491984321795583,0.39936694235774733,0.0,1101.0,32.2028812,-86.2044615
Alabama,Morgan County,119490,47030,1.7850866181270397,1.7122771780065278,0.9515440622646247,0.005021340697966357,0.0,21.18838396518537,14.476525232237009,0.07113565988785672,0.0,31.78843417859235,20.20252740815131,0.05774541802661311,0.0,86.83488158004855,60.161519792451244,0.281195079086116,0.0,11.933216168717047,8.243367645828101,0.03682316511841995,0.0,1103.0,34.4544844,-86.8464021
Alabama,Perry County,10591,3947,6.8076668869795105,5.4480219053913705,4.7681994145973,2.634312151827023,0.0,23.77490321971485,21.074497214616184,10.86771787366632,0.0,67.3307525257294,56.78406193938249,27.853838164479278,0.0,98.6970068926447,83.23104522707959,39.53356623548296,0.0,16.39127561136814,14.200736474365028,5.844585025021244,0.0,1105.0,32.6390053,-87.2938269
Alabama,Pickens County,19746,8012,1.691481819102603,3.4589283905601134,2.684087916540059,0.1316722374151727,0.0,20.73331307606604,16.352679023599716,0.9368986123771903,0.0,41.43117593436646,33.45487693710118,1.493973462979844,0.0,90.00810290691786,73.1996353691887,4.152739795401601,0.0,15.025828015800668,11.977109287957056,0.6887470880178265,0.0,1107.0,33.2968003,-88.0968644
Alabama,Pike County,32899,13210,5.966746709626433,2.440803671844129,1.31918903310131,0.06991093954223532,0.0,17.654032037447948,13.29827654335998,1.0091492142618317,0.0,43.97702057813307,26.46585002583665,1.6626645186783793,0.0,86.33393112252652,58.92276360983617,4.200735584668227,0.0,10.629502416486822,8.13702544150278,0.6960697893552995,0.0,1109.0,31.7986533,-85.9416076
Alabama,Randolph County,22913,9164,1.7762842054728758,2.1079736394186708,1.84611355998778,0.3273250992886135,0.0,21.747479596735477,19.36018853925719,2.8717322044254354,0.0,37.223410291101125,33.491904159210925,6.502858639200454,0.0,91.0749356260638,81.97529786584036,12.826779557456467,0.0,15.113690917819579,13.58617378780605,1.9770435997032252,0.0,1111.0,33.2964614,-85.4640637
Alabama,Russell County,52947,21229,1.0841029708954237,2.683815891363061,1.3258541560428354,0.4155098494721136,0.011332086803784917,18.229550305022002,10.954350576992086,1.4429523863486127,0.03021889814342645,31.777060078946874,17.424972141953273,3.284416491963662,0.11709823030577747,74.45181030086691,45.38878501142652,7.416850813077228,0.20964360587002098,10.206432847942281,6.06266644002493,1.4240655750089712,0.04532834721513967,1113.0,32.2898113,-85.1869798
Alabama,Shelby County,195085,74072,1.3194248660840147,0.9836737832226978,0.7268626496142707,0.002050388292282851,0.0,22.8546530999308,17.004382704974756,0.0240920624343235,0.0,18.838967629494835,13.62175461978112,0.05023451316092985,0.0,88.31022374862239,64.62465079324396,0.1809467667939616,0.0,9.436399518158751,6.994899659122947,0.030755824384242767,0.0,1117.0,33.2630428,-86.6780894
Alabama,St. Clair County,83593,31624,2.3530678406086634,1.1089445288481092,0.9354850286507242,0.0,0.0,22.40977115308698,19.599727249889344,0.0,0.0,30.366178986278758,26.075149833119998,0.0,0.0,94.40503391432297,82.39565513858817,0.0,0.0,12.333568600241646,10.622899046570886,0.0,0.0,1115.0,33.7194907,-86.3113273
Alabama,Sumter County,13763,5629,5.216885853374991,4.127007193199157,3.226040834120468,1.0099542250962725,0.0,18.854900821041923,14.568044757683646,4.206931628278719,0.03632928867252779,52.6774685751653,40.36183971517838,10.753469447068225,0.07265857734505558,85.30843566082976,65.03669258155925,18.0411247547773,0.15258301242461672,13.245658650003634,11.065901329651966,3.2478384073239845,0.021797573203516676,1119.0,32.5974811,-88.2000571
Alabama,Talladega County,82291,31890,3.8193727139055307,2.7111105710223473,1.779052387259846,0.0,0.0,21.08493030829617,16.481753776233123,0.012151997180736654,0.0,40.481948208188015,30.539184114909286,0.01579759633495765,0.0,91.16671324932253,72.17192645611307,0.04496238956872562,0.0,12.616203473040793,9.702154549100145,0.006075998590368327,0.0,1121.0,33.3693135,-86.1759302
Alabama,Tallapoosa County,41616,16985,1.384083044982699,3.2535563244905807,2.6071703191080355,0.06728181468665898,0.0,20.415224913494807,17.16166858900423,1.1053440984236833,0.0,39.15561322568243,31.43502499038831,1.9583813917723951,0.0,93.22616301422529,79.78181468665898,5.351307189542483,0.0,16.00586312956555,13.884083044982699,0.9563629373317956,0.0,1123.0,32.8633076,-85.7996176
Alabama,Tuscaloosa County,194656,76141,5.354574223245109,1.4826154857800427,0.5712641788591156,0.01181571592963998,0.0,17.683503205655104,11.2624321880651,0.4294755877034358,0.0,27.58044961367746,13.802811112937697,0.41971477889199404,0.0,78.38340457011344,46.43216751602828,1.6778316620088773,0.0,8.508342922899885,5.204566003616637,0.23271823113595264,0.0,1125.0,33.2902197,-87.5227834
Alabama,Walker County,67023,26571,1.2920937588588992,2.1261358041269416,1.7531295227011623,0.0,0.0,20.691404443250825,18.044551870253496,0.04177670351968727,0.0,39.16118347432971,34.16588335347567,0.07310923115945273,0.0,91.35371439655043,79.38170478790863,0.24916819599242052,0.0,14.415946764543513,12.176417050863137,0.0537129045253122,0.0,1127.0,33.7915581,-87.3010936
Alabama,Washington County,17581,6758,0.8361299129742336,1.3423582276321029,1.2968545588988112,0.2787099709914112,0.0,24.736931915135656,23.320630225811957,2.9349866332973096,0.0,43.2341732552187,40.9476139013708,4.482111370229225,0.0,96.95125419486946,91.650076787441,11.182526591206415,0.0,14.236960354928616,13.213127808429553,1.7917069563733574,0.0,1129.0,31.4085035,-88.2124041
Alabama,Wilcox County,11670,4484,0.9254498714652957,5.8526135389888605,5.70694087403599,1.8851756640959727,0.0,26.795201371036846,26.049700085689803,11.182519280205655,0.00856898029134533,53.64181662382177,52.71636675235647,23.676092544987146,0.025706940874035987,99.32305055698372,96.86375321336762,41.96229648671808,0.042844901456726654,14.892887746358182,14.53299057412168,6.323907455012853,0.00856898029134533,1131.0,31.9900824,-87.3049349
Alabama,Winston County,24484,10163,1.2293742852475085,2.507760169906878,1.9359581767685021,0.07760169906877962,0.0,19.269727168763275,16.917170396993956,0.8699558895605293,0.0,41.49240320209116,36.47279856232642,1.6949844796601863,0.0,90.15275281816697,79.86440124162718,4.219081849371017,0.0,15.606110112726679,13.55987583728149,0.8331971900016338,0.0,1133.0,34.1545665,-87.3653458
Alaska,Aleutians East Borough,3141,553,54.950652658389046,4.17064629099013,4.011461318051576,1.7828716969118115,1.0824578159821714,11.461318051575931,11.015600127347978,1.7828716969118115,1.1142948105698822,34.4157911493155,33.33333333333333,14.581343521171602,13.307863737663164,96.81630054122891,93.91913403374721,39.03215536453359,35.62559694364852,4.807386182744349,4.616364215218083,1.4008277618592806,1.3371537726838587,2013.0,55.2450437,-161.9974772
Alaska,Aleutians West Census Area,5561,1212,45.72918539830966,2.8591979859737457,2.3916561769465923,1.8521848588383385,1.8521848588383385,10.825391116705628,8.93724150332674,3.6684049631361266,3.6684049631361266,23.682790864952345,17.964394893004858,7.804351735299407,7.786369358029131,82.17946412515734,61.30192411436792,21.399028951627404,21.309117065276027,3.0210393814062217,2.499550440568243,1.3486782952706347,1.3486782952706347,2016.0,51.9594469,178.338813
Alaska,Anchorage Municipality,291826,107332,2.8955610535044856,1.2260730709395324,0.3382152378472103,0.0010280098414808825,0.0,18.85986855180827,8.011623364607678,0.03598034445183088,0.0006853398943205883,14.08442016818241,4.836443634220392,0.021245536723938235,0.0010280098414808825,72.84991741654274,30.75085838821764,0.21622473665814562,0.006168059048885294,5.082480656281483,2.0111299198837664,0.014049467833572058,0.0,2020.0,61.1742503,-149.2843294
Alaska,Bethel Census Area,17013,4651,1.986716040674778,14.124493034738142,13.513195791453594,10.732968906130607,8.658084993828249,32.610356785987186,29.559748427672954,19.86716040674778,16.340445541644623,48.75683301005114,46.35866690178099,35.320049374008114,28.419443954622935,86.5926056544995,77.94039851877976,51.41362487509552,41.89149473931699,5.266560865220714,4.831599365191324,3.679539175924293,2.9389290542526303,2050.0,60.9291413,-160.1526246
Alaska,Bristol Bay Borough,997,423,1.60481444332999,4.212637913741224,4.212637913741224,2.4072216649949847,0.0,22.567703109327983,22.567703109327983,12.738214643931794,0.10030090270812438,20.36108324974925,20.36108324974925,11.634904714142428,0.20060180541624875,100.0,99.89969909729187,56.26880641925778,0.7021063189568706,8.324974924774322,8.324974924774322,5.1153460381143425,0.20060180541624875,2060.0,58.741661,-156.9668053
Alaska,Denali Borough,1826,806,1.9715224534501645,1.3691128148959473,1.3691128148959473,1.3691128148959473,1.3691128148959473,22.508214676889377,22.508214676889377,22.508214676889377,22.508214676889377,33.07776560788609,33.07776560788609,33.07776560788609,33.02300109529025,100.0,100.0,100.0,99.78094194961665,7.502738225629792,7.502738225629792,7.502738225629792,7.502738225629792,2068.0,63.6820386,-150.0270164
Alaska,Dillingham Census Area,4847,1563,1.0728285537445843,11.84237672787291,11.30596245100062,9.634825665360017,6.828966370951103,31.421497833711577,28.760057767691354,18.444398597070354,13.781720651949659,42.56240973798226,40.04538890035073,31.46276047039406,23.478440272333405,93.10913967402516,84.05199092221993,50.79430575613782,35.692180730348674,6.725809779244894,5.983082318960182,3.8580565298122553,2.5170208376315246,2070.0,59.5433255,-158.2671226
Alaska,Fairbanks North Star Borough,97581,36441,4.419917811869114,1.0504094034699378,0.6220473247865875,0.008198317295375124,0.005123948309609453,23.497402158207027,18.34475973806376,1.32812740185077,0.2029083530605343,20.513214662690483,15.06338324058987,0.8454514710855596,0.23467683258011296,90.13947387298758,71.0824853198881,5.30636086943155,0.9325585923489205,5.538988122687819,4.1555220790932665,0.40171754747338106,0.11272686281140797,2090.0,64.6760436,-146.5481586
Alaska,Haines Borough,2508,1149,0.0,1.9138755980861244,1.2759170653907497,0.0,0.0,15.5103668261563,11.323763955342903,3.9473684210526314,3.349282296650718,24.242424242424242,20.215311004784688,10.087719298245613,8.452950558213717,76.55502392344498,58.97129186602871,20.69377990430622,17.304625199362043,9.569377990430622,7.29665071770335,2.3125996810207337,1.8341307814992027,2100.0,59.0984037,-135.5757906
Alaska,Hoonah-Angoon Census Area,2150,913,0.0,13.069767441860467,13.069767441860467,12.976744186046513,12.558139534883722,19.72093023255814,19.72093023255814,19.441860465116278,18.790697674418606,31.348837209302328,31.348837209302328,31.116279069767444,29.953488372093023,100.0,100.0,99.39534883720931,95.20930232558139,13.395348837209303,13.395348837209303,13.348837209302324,12.790697674418606,2105.0,58.403336,-135.884909
Alaska,Juneau City and Borough,31275,12187,2.8361310951239007,2.1135091926458833,1.6818545163868905,0.04156674660271783,0.009592326139088728,19.872102318145483,15.565147881694644,0.05755395683453237,0.0,12.585131894484414,10.442845723421263,0.0671462829736211,0.02557953637090328,81.35891286970424,64.13429256594723,0.5019984012789769,0.09592326139088729,6.295763389288569,4.860111910471622,0.04156674660271783,0.00639488409272582,2110.0,58.3729099,-134.1784454
Alaska,Kenai Peninsula Borough,55400,22161,3.108303249097473,2.2635379061371843,1.7581227436823104,0.4332129963898917,0.12274368231046931,22.43682310469314,19.445848375451263,3.7292418772563174,0.6444043321299638,27.386281588447652,23.86642599277978,5.323104693140794,0.9909747292418774,94.12815884476534,82.64259927797833,15.85740072202166,2.812274368231047,10.427797833935019,9.066787003610107,2.045126353790614,0.3176895306859206,2122.0,60.360766,-152.0526403
Alaska,Ketchikan Gateway Borough,13477,5305,1.8253320471915115,2.322475328337167,0.5194034280626253,0.029680195889292868,0.02226014691696965,14.120353194331084,8.458855828448469,0.0,0.0,13.645470060102397,6.2551012836684725,0.007420048972323217,0.007420048972323217,59.182310603249974,35.11167173703346,0.2893819099206055,0.1780811753357572,5.208874378570898,3.2425614009052457,0.0890405876678786,0.05194034280626253,2130.0,55.4499378,-131.1066847
Alaska,Kodiak Island Borough,13592,4630,2.4720423778693346,2.972336668628605,2.486756915832843,0.8092995879929371,0.5738669805768098,22.81489111241907,15.1854031783402,3.1047675103001766,1.4125956444967627,20.968216597998822,13.662448499117128,3.9140670982931134,2.2807533843437313,80.50323719835197,53.71542083578576,12.014420247204239,4.738081224249559,5.606238964096527,3.9508534432018836,0.8534432018834609,0.4120070629782225,2150.0,57.7044003,-153.9183721
Alaska,Kusilvak Census Area,7459,1745,0.0,16.034320954551546,12.763104973857086,4.383965679045448,3.7002279125888187,32.88644590427671,26.59873977745006,8.754524735219197,7.48089556240783,57.541225365330476,46.54779461053761,15.994101085936451,13.607722214774098,78.49577691379541,62.89046789113822,20.941144925593242,17.750368682128972,4.37055905617375,3.405282209411449,0.9384636010189034,0.7373642579434241,2158.0,62.2835878,-163.1901714
Alaska,Lake and Peninsula Borough,1631,553,2.2685469037400368,15.879828326180256,15.879828326180256,15.879828326180256,15.879828326180256,30.16554261189454,30.16554261189454,30.16554261189454,30.16554261189454,41.63090128755365,41.63090128755365,41.63090128755365,41.56958920907419,100.0,100.0,100.0,99.93868792152054,7.786633966891478,7.786633966891478,7.786633966891478,7.786633966891478,2164.0,58.1085067,-156.4134134
Alaska,Matanuska-Susitna Borough,88995,31824,1.5394123265351987,1.0539917972919828,0.7899320186527333,0.10225293555817742,0.035957076240238216,26.8981403449632,23.083319287600425,1.2708579133659195,0.33709758975223325,23.205798078543737,19.78425754255857,2.2551828754424403,0.584302488903871,93.02320355076128,79.7898758357211,6.208213944603629,1.61357379628069,7.373447946513849,6.071127591437722,0.7472329906174504,0.2112478229113995,2170.0,62.2656263,-149.5039935
Alaska,Nome Census Area,9492,2815,2.307206068268015,12.484197218710493,10.872313527180784,5.478297513695743,5.467762326169406,24.294142435735356,19.058154235145388,8.501896333754742,8.438685208596713,35.97766540244417,31.436999578592502,15.191740412979351,15.170670037926676,65.9502739148757,50.76906868942267,23.13527180783818,22.945638432364095,3.5292878213232197,2.69700800674252,1.4011799410029497,1.390644753476612,2180.0,64.7836858,-164.1889119
Alaska,North Slope Borough,9430,2029,28.123011664899256,6.511134676564156,4.019088016967126,2.1314952279957584,2.07847295864263,14.973488865323436,7.412513255567338,3.626723223753977,3.4676564156945915,18.992576882290564,11.378579003181336,7.104984093319194,6.903499469777306,72.69353128313892,50.4559915164369,37.910922587486745,36.786850477200424,3.022269353128314,1.9088016967126193,1.1558854718981972,1.1346765641569458,2185.0,69.4493427,-153.4728302
Alaska,Northwest Arctic Borough,7523,1919,5.0777615313040005,11.40502459125349,10.1023527847933,8.680047853250034,7.204572643892064,23.926625016615713,19.646417652532232,16.86827063671408,13.239399175860694,38.58832912401967,32.91240196730028,28.96450883955869,24.01967300279144,64.5620098365014,52.784793300545,45.64668350392131,36.607736275422035,3.3098497939651734,2.7914395852718332,2.352784793300545,1.781204306792503,2188.0,67.0050655,-160.0210864
Alaska,Petersburg Borough,3815,1599,1.1271297509829619,4.718217562254259,3.486238532110092,0.41939711664482304,0.15727391874180865,14.259501965923985,8.204456094364351,1.2319790301441678,0.39318479685452157,10.956749672346003,5.6356487549148095,0.655307994757536,0.235910878112713,62.516382699868934,36.74967234600262,4.4036697247706424,1.5203145478374835,7.182175622542595,3.905635648754915,0.3669724770642202,0.1310615989515072,2195.0,57.1124581,-133.0085979
Alaska,Prince of Wales-Hyder Census Area,5559,2194,0.8994423457456376,3.130059363194819,1.9607843137254901,1.3671523655333693,1.1512862025544162,17.737003058103976,9.839899262457276,4.569167116387839,3.7596690052167654,24.608742579600648,15.272531030760927,8.832523835222164,7.195538765965101,71.2358337830545,41.48228098578881,22.701924806619896,18.762367332254,7.033639143730887,4.425256341068538,2.716315884151826,2.392516639683396,2198.0,55.6827733,-133.1623885
Alaska,Sitka City and Borough,8881,3545,2.8712982772210336,2.128138723116766,1.3061592163044702,0.11259993244004053,0.06755995946402432,12.66749239950456,8.309875014074992,0.10133993919603648,0.056299966220020266,10.595653642607815,6.249296250422249,0.0,0.0,51.13162932102241,34.523139286116425,0.6755995946402432,0.39409976354014187,4.481477311113613,3.186578088053147,0.03377997973201216,0.02251998648800811,2220.0,57.1932044,-135.3673965
Alaska,Skagway Municipality,968,436,3.3057851239669422,0.6198347107438017,0.30991735537190085,0.0,0.0,2.479338842975207,1.0330578512396695,0.0,0.0,2.8925619834710745,1.4462809917355373,0.10330578512396695,0.0,16.32231404958678,8.47107438016529,0.30991735537190085,0.0,1.3429752066115703,0.7231404958677686,0.10330578512396695,0.0,2230.0,59.5603794,-135.3382787
Alaska,Southeast Fairbanks Census Area,7029,2567,5.249679897567221,1.821027173139849,1.6929862000284537,1.0954616588419406,0.8536064874093043,25.096030729833547,23.5595390524968,7.198748043818466,3.7843220941812494,27.045098876084793,25.26675202731541,9.887608479157775,6.245554132878076,94.86413430075402,88.83198178972826,29.7339593114241,16.91563522549438,9.03400199174847,8.322663252240718,3.0587565798833403,1.8779342723004695,2240.0,63.8649972,-143.2186282
Alaska,Wrangell City and Borough,2369,1053,0.8020261713803293,1.9839594765723934,0.7176023638666104,0.3799071338117349,0.1266357112705783,10.890671169269735,7.935837906289573,4.432249894470241,1.4352047277332207,13.929928239763614,8.737864077669903,5.023216547066273,1.6040523427606586,53.60911777121148,36.97762769100886,21.35922330097087,6.796116504854369,8.442380751371886,5.698607007176023,2.95483326298016,0.8442380751371887,2275.0,56.1807793,-132.0267878
Alaska,Yakutat City and Borough,662,270,2.719033232628399,3.0211480362537766,1.6616314199395772,0.0,0.0,20.996978851963746,10.27190332326284,0.0,0.0,30.362537764350456,15.709969788519636,0.1510574018126888,0.0,81.72205438066466,42.296072507552864,0.3021148036253776,0.0,7.552870090634441,4.380664652567976,0.0,0.0,2282.0,60.0174528,-140.416942
Alaska,Yukon-Koyukuk Census Area,5588,2217,0.5547602004294917,18.772369362920543,18.235504652827487,18.128131710808876,18.128131710808876,25.94846098783107,25.03579098067287,24.785254115962776,24.785254115962776,45.23979957050823,43.66499642090193,43.27129563350036,43.27129563350036,93.45025053686471,90.33643521832498,89.56692913385827,89.56692913385827,9.520400858983537,9.35934144595562,9.341445955619184,9.341445955619184,2290.0,65.3757271,-151.5778496
Arizona,Apache County,71518,22771,1.3157526776475852,3.7431136217455743,3.57252719595067,2.3168992421488297,1.0794485304398893,30.225957101708662,27.80978215274476,16.065885511339804,8.274839900444643,58.478984311641824,55.109203277496576,34.48502474901423,17.345283704801588,95.19002209234039,87.67582986101401,52.434352191056796,24.844095192818592,10.94829273749266,10.088369361559328,6.553594899186218,2.6035403674599404,4001.0,35.385084,-109.4901722
Arizona,Cochise County,131346,50865,4.77441262010263,1.6894309685867859,1.148873966470239,0.23373380232363378,0.07080535379836463,19.790477060588067,14.733604373182283,2.5162547774580117,0.6364868362949767,33.51453413122592,23.822575487643324,5.053065947954258,1.6757267065612962,87.31594414751876,68.75504392977328,13.29313416472523,3.8607951517366343,15.171379410107654,12.537115709652369,3.0880270430770635,1.143544531238104,4003.0,31.8401287,-109.7751627
Arizona,Coconino County,134421,46711,6.571889808884028,1.176155511415627,0.8570089494944986,0.5438138386115265,0.4404073768235618,18.738143593634923,13.227843863682015,4.156344618772365,3.11856034399387,27.340966069289767,18.36840969788947,7.902783047291718,6.038491009589276,74.4958005073612,51.77390437506044,15.627766494818518,11.343465678725796,7.385006806972124,5.712649065250221,1.882146390816911,1.252036512152119,4005.0,35.8296919,-111.7737277
Arizona,Gila County,53597,22000,1.710916655782973,2.0150381551206227,1.6418829412093958,0.22575890441629193,0.016791984626005188,18.00287329514712,13.842192660036941,1.6605407019049574,0.3078530514767618,37.23156146799261,28.324346511931637,4.4927887754911655,0.6772767132488758,85.08871765210739,63.343097561430675,11.991342799037259,1.7650241618001008,20.072018956284868,14.17616657648749,3.6867735134429167,0.44405470455435936,4007.0,33.7896177,-110.8118696
Arizona,Graham County,37220,11120,10.07791509940892,1.738312735088662,1.4239656098871574,0.4970445996775927,0.45943041375604515,27.031166039763566,22.976894142933908,2.920472864051585,2.1762493283181086,39.288017195056426,33.594841483073616,6.131112305212252,4.68833960236432,94.76088124664159,81.31112305212251,11.751746372917786,6.128425577646427,10.588393336915637,8.653949489521763,1.00214938205266,0.45943041375604515,4009.0,32.9318277,-109.8783103
Arizona,Greenlee County,8437,3188,0.4148393978902453,1.0667298802892022,1.0430247718383312,0.3911342894393742,0.2963138556358895,21.42941803958753,17.19805618110703,7.917506222590968,4.930662557781202,31.38556358895342,28.35130970724191,13.831930781083324,9.316107621192367,77.69349294773023,64.77420884200545,31.741140215716484,19.165580182529336,11.74588123740666,11.176958634585752,6.139623088775631,3.650586701434159,4011.0,33.2388723,-109.2423231
Arizona,La Paz County,20489,9198,1.8936990580311386,2.947923275904144,2.781980574942652,1.9376250671091806,1.7082336863682952,16.09156132558934,12.152862511591586,6.05690858509444,4.158328859387964,47.50353848406462,40.86094977792962,26.39953145590317,19.903362780028306,92.77173117282445,78.97408365464396,53.155351652106006,40.75845575674752,31.93908926741178,29.85016350236712,25.120796524964618,20.327980867782713,4012.0,33.7276104,-114.038806
Arizona,Maricopa County,3817117,1411583,1.393119466864652,1.2405435830235227,0.35982653924414687,0.0062612699584529375,0.00248878931402941,17.350398219389135,6.220663395960878,0.14471654916524695,0.04427425200747056,19.831983143298988,6.204158793141525,0.2465211310001763,0.07814798446052348,65.43241928397794,23.664430511299496,0.6797276583348113,0.14429738464919992,8.357826076591312,3.235137932633451,0.07393014151779996,0.015692471569511757,4013.0,33.3451756,-112.4989296
Arizona,Mohave County,200186,82539,1.313278650854705,1.8642662324038644,1.3537410208506089,0.2167983775089167,0.04645679518048215,17.504221074400807,12.137711927907047,1.3092823673983196,0.2782412356508447,36.67239467295415,26.466386260777476,4.68314467545183,1.2303557691347047,87.37074520695754,64.86167863886585,10.282437333280049,2.5965851757865184,20.70874087098998,16.129999100836223,2.8978050413115803,0.8971656359585585,4015.0,35.717705,-113.7496891
Arizona,Navajo County,107449,35658,2.072611192286573,2.8171504620796846,2.354605440720714,1.3941497826876006,0.8506361157386295,26.430213403568203,21.881078465132294,9.242524360394233,4.890692328453499,46.9822892721198,40.22652607283456,19.481800668223993,10.114565980139414,89.193012498953,74.45671900157284,30.437696023229627,14.970823367364982,11.91355899077702,10.004746437844931,4.021442730970041,1.5523643775186367,4017.0,35.3907852,-110.3210248
Arizona,Pima County,980263,388660,2.26714667390282,1.8628674141531405,0.5294497497100268,0.07100135371833885,0.021728862560353703,16.27665228617218,8.39621611751132,0.6511517827358576,0.09211813564318963,24.983397312761983,10.601338620349846,1.3115867884435095,0.21453426274377385,70.67460467241955,36.440832715301916,2.4962688584594135,0.2951248797516585,11.379089081195556,6.526411789489147,0.31256917786349175,0.02917584362563924,4019.0,32.128038,-111.7836574
Arizona,Pinal County,375770,125590,6.984325518269154,1.2393219256460069,0.7967639779652447,0.09420656252494877,0.018096175852250047,23.09098650770418,16.524469755435504,1.4157596402054449,0.16552678500146364,30.05828033105357,21.495861830374963,2.2356760784522445,0.28953881363600076,88.33142613832929,66.01591398994066,5.395055486068605,0.6251164276019906,12.359421986853661,9.28067700987306,0.8731404848710647,0.1088431753466216,4021.0,32.9185207,-111.3663394
Arizona,Santa Cruz County,47420,15437,0.8097849008857022,1.229439055250949,0.5461830451286377,0.05061155630535639,0.0,26.396035428089416,18.63137916490932,1.1978068325601012,0.3289751159848165,44.52551665963728,28.975115984816536,2.446225221425559,0.48713622943905527,84.7089835512442,60.28469000421764,7.077182623365669,2.332349219738507,10.52087726697596,7.3049346267397715,1.904259805989034,0.7127794179671025,4023.0,31.525733,-110.8452278
Arizona,Yavapai County,211033,90903,1.6703548734084244,1.301692152412182,0.844417697706046,0.09098103140267162,0.005212454924111395,17.03288111338037,12.960532239033707,1.3884084479678533,0.1402624234124521,30.078708069354082,22.913951846393694,3.4454327048376325,0.5041865490231385,87.92558509806523,67.51645477247634,7.9589448095795445,1.013111693431833,21.01614439447859,16.420180730028004,1.9902100619334415,0.26678292020679234,4025.0,34.631071,-112.5772247
Arizona,Yuma County,195751,64767,3.0247610484748484,1.1647450076883388,0.5798182384764319,0.01532559220642551,0.008173649176760271,19.338343099141255,9.14937854723603,0.46589800307533547,0.15785359972618274,30.84888455231391,15.638234287436589,0.5966763899034998,0.25338312447956846,69.34677217485479,36.6424692594163,1.5626995519818543,0.557340703240341,11.540170931438409,7.162670944209736,0.18390710647710612,0.07305198951729493,4027.0,32.7739424,-113.910905
Arkansas,Arkansas County,19019,8005,1.2987012987012987,3.7593984962406015,2.9128765970871235,0.0999000999000999,0.0,20.65303117934697,14.564382985435618,1.9033597980966401,0.0,38.961038961038966,28.802776171197227,3.8172353961827645,0.0,89.2475945107524,64.72474893527526,9.727114990272884,0.0,14.480256585519744,10.289710289710289,1.9086176980913823,0.0,5001.0,34.2895697,-91.3765466
Arkansas,Ashley County,21853,8765,0.8740218734269894,2.7684986043106212,1.7022834393447122,0.5628517823639775,0.0,21.37921566832929,14.30009609664577,2.4390243902439024,0.0,39.495721411247885,25.20020134535304,5.010753672264678,0.0,87.65844506475084,60.087859790417795,10.126756051800669,0.0,14.23145563538187,9.330526701139432,1.7251635930993456,0.0,5003.0,33.1908354,-91.7722672
Arkansas,Baxter County,41513,18748,1.4332859586153734,1.281526268879628,0.8407005034567485,0.045768795317129574,0.0,15.744465589092574,12.188952858140825,0.3035193794714909,0.0,33.24741647194855,26.389323826271287,0.7250740731818949,0.0,89.45872377327584,70.36350059017657,1.8114807409727072,0.0,25.750969575795533,19.834750560065523,0.421554693710404,0.0,5005.0,36.2802684,-92.3299488
Arkansas,Benton County,221339,82087,0.931150859089451,0.9017841410686775,0.46806030568494483,0.0013553869855741645,0.0,23.74005484799335,14.897058358445642,0.05828164037968908,0.0,24.464735089613672,15.20427940850912,0.08041962781073375,0.0,85.422361174488,55.70098355915587,0.329359037494522,0.0,10.49385783797704,7.573902475388432,0.07499807986843711,0.0,5007.0,36.3378189,-94.2562984
Arkansas,Boone County,36903,15120,1.2600601577107553,1.560848711486871,0.9240441156545539,0.11652169200336016,0.0,20.169091943744412,16.578597945966454,2.8046500284529716,0.0,34.1218871094491,26.55068693602146,6.259653686692139,0.0,86.66775058938298,70.83434951087987,12.860743029022032,0.0,15.432349673468282,12.595181963526,2.6691596889141804,0.0,5009.0,36.3042991,-93.0792364
Arkansas,Bradley County,11508,4673,1.9117135905457074,2.6416405978449773,1.7639902676399026,0.7212374000695169,0.0,18.587069864442128,13.668752172401808,5.908932916232186,0.0,37.08724365658672,26.3555787278415,10.210288494960027,0.008689607229753215,80.5526590198123,59.57594716718805,23.766075773375043,0.03475842891901286,14.355231143552311,10.888077858880779,3.814737573861662,0.01737921445950643,5011.0,33.4665491,-92.1691559
Arkansas,Calhoun County,5368,2262,3.2600596125186287,2.309985096870343,2.309985096870343,1.7883755588673622,0.1676602086438152,20.529061102831594,20.529061102831594,13.84128166915052,1.732488822652757,40.64828614008942,40.64828614008942,24.70193740685544,3.334575260804769,100.0,100.0,65.49925484351714,8.23397913561848,17.194485842026825,17.194485842026825,12.23919523099851,1.6020864381520121,5013.0,33.5604604,-92.513879
Arkansas,Carroll County,27446,11393,0.8380091816658166,1.8472637178459521,1.2205785906871676,0.06922684544195876,0.0,19.503752823726593,14.799970851854551,1.1695693361509873,0.0,35.99067259345624,27.16607155869708,1.599504481527363,0.0,88.59943161116374,68.91714639656051,5.053559717262989,0.0,16.84762806966407,13.171318224877943,0.8161480725788822,0.0,5015.0,36.3373704,-93.5409718
Arkansas,Chicot County,11800,4579,6.11864406779661,5.203389830508474,3.957627118644068,0.2627118644067797,0.0,18.627118644067796,14.44915254237288,1.1271186440677965,0.0,42.983050847457626,32.6271186440678,2.3898305084745766,0.0,83.61864406779661,66.64406779661017,5.983050847457627,0.0,15.805084745762713,12.610169491525426,1.4576271186440677,0.0,5017.0,33.2671393,-91.2971578
Arkansas,Clark County,22995,8783,11.358991085018483,1.909110676233964,1.0263100674059578,0.49141117634268316,0.0,16.25135899108502,12.781039356381822,5.375081539465102,0.0,35.20765383779082,21.900413133289845,9.206349206349207,0.0,82.27875625135898,59.547727766905844,22.700587084148726,0.0,11.985214176995,9.48901935203305,4.022613611654707,0.0,5019.0,34.0533162,-93.1762085
Arkansas,Clay County,16083,6845,0.7772181806876827,2.829074177703165,1.280855561773301,0.043524218118510226,0.0,18.39830877323882,12.391966672884411,0.55337934464963,0.0,38.44432008953553,24.187029783000686,1.2497668345457937,0.0,83.71572467823168,58.061306970092645,2.667412796120127,0.0,16.949574084436982,11.74532114655226,0.5409438537586272,0.0,5021.0,36.3673021,-90.4187041
Arkansas,Cleburne County,25970,11078,1.3053523296110896,1.085868309587986,0.9395456295725838,0.2079322294955718,0.0,17.6010781671159,14.51289949942241,2.961108971890643,0.0,33.26145552560647,27.346938775510203,4.743935309973046,0.0,89.48016942626107,75.64497497112053,12.760877936080092,0.0,21.282248748556025,18.15556411243743,2.2333461686561416,0.0,5023.0,35.5663146,-92.0599504
Arkansas,Cleveland County,8689,3416,0.5984578202324778,1.7493382437564735,1.5421797675221545,0.1726320635285994,0.0,22.062377718955002,20.635285993785246,5.282541143975141,0.0,37.323052134883184,34.76809759465991,7.618828403728853,0.0,90.85050063298424,86.0052940499482,22.09690413166072,0.0,14.650707791460468,14.121302796639428,3.843940614570146,0.0,5025.0,33.8932006,-92.1887141
Arkansas,Columbia County,24552,9759,5.355979146301728,1.3033561420658195,0.7372108178559792,0.028510915607689803,0.0,18.593189964157705,13.469371130661454,1.2992831541218637,0.0,37.56109481915934,27.419354838709676,2.773704789833822,0.0,83.77321603128055,63.432714239165854,6.052460084718149,0.0,13.558976865428479,9.986966438579342,1.1811665037471488,0.0,5027.0,33.2230377,-93.2328433
Arkansas,Conway County,21273,8463,1.3444272081981856,2.2140741785361726,1.654679640859305,0.3290556103981573,0.0,21.308701170497816,17.28012034033752,3.1401306820852724,0.0,35.92817186104452,28.919287359563768,5.890095426127016,0.0,87.91895830395336,72.24650966013256,13.134019649320736,0.0,14.671179429323555,11.70967893574014,2.293987683918582,0.0,5029.0,35.265702,-92.6892479
Arkansas,Craighead County,96443,37291,3.71100027995811,1.983555053243885,0.8575013220244083,0.011405700776624535,0.0,20.007672925977,12.740167767489604,0.1959706769801852,0.0,34.487728502846245,20.374729114606556,0.4365272751780845,0.0,78.48366392584221,49.866760677291246,0.769366361477764,0.0,8.589529566687059,5.439482388561119,0.1534585195400392,0.0,5031.0,35.8277285,-90.6314213
Arkansas,Crawford County,61948,23447,0.8716988441919029,1.3366048944275843,0.8797701297862723,0.058113256279460186,0.0,24.259055982436884,17.99896687544392,1.2784916381481244,0.0,37.30225350293795,27.406857364240977,2.4681991347581844,0.0,91.94162846258152,70.1088009298121,5.536901917737457,0.0,12.210240847162137,9.435332859817912,0.9249693291147413,0.0,5033.0,35.5830114,-94.2362187
Arkansas,Crittenden County,50902,19026,1.3771561038858984,3.0509606695218263,1.3103610860084083,0.5265019056225688,0.0,23.209304153078463,10.137126242583788,2.612863934619465,0.0,38.9925739656595,16.294055243408902,5.074456799339909,0.0,79.25032415229263,35.216690896231974,9.29433028171781,0.0,8.374916506227652,3.7464146791874584,1.3025028486110566,0.0,5035.0,35.1975594,-90.3051195
Arkansas,Cross County,17870,7002,1.259093452714046,2.473419138220481,1.7515388919977615,0.9177392277560157,0.0,21.214325685506434,14.868494683827643,4.448796866256295,0.0,35.90374930050364,25.5288192501399,9.86569669837717,0.0,84.43200895355344,60.25741466144376,18.858421936205932,0.0,12.781197537772805,8.987129266927813,3.4247341913822047,0.0,5037.0,35.2856921,-90.7639835
Arkansas,Dallas County,8116,3280,4.990142927550518,3.9181862986692955,2.870872350911779,1.3676688023656973,0.09857072449482504,20.022178413011336,14.428289797930013,6.554953178905865,0.38196155741744703,40.931493346476095,29.817644159684576,14.99507146377526,1.047313947757516,84.42582552981764,62.30901922129127,32.09709216362741,2.2178413011335634,14.41596845736816,10.436175455889602,6.086742237555446,0.4805322819122721,5039.0,33.9678233,-92.6539989
Arkansas,Desha County,13008,5321,0.43050430504305043,5.873308733087331,4.166666666666666,0.24600246002460024,0.0,22.46309963099631,15.874846248462484,1.968019680196802,0.0,48.954489544895445,35.78567035670357,4.735547355473554,0.0,85.63191881918819,62.807503075030745,9.094403444034441,0.0,12.538437884378844,9.571033210332104,1.7527675276752765,0.0,5041.0,33.8287519,-91.2441034
Arkansas,Drew County,18509,7360,4.2411799665027825,1.8531525203954833,1.2750553784645309,0.28094440542438814,0.0,19.703927818898915,14.23631746717813,2.1394997028472638,0.0,32.91371765087255,23.939705008374304,4.262791074612351,0.0,83.84029391107029,64.5253660381436,9.438651466853964,0.0,12.350748284618295,9.92490139931925,1.4695553514506456,0.0,5043.0,33.5872418,-91.7227781
Arkansas,Faulkner County,113237,42614,3.5809850137322607,1.448289869918843,0.8115721893020832,0.005298621475312839,0.0,21.61484320495951,16.65621660764591,0.31526797778111393,0.0,31.764352640921256,22.276287785794395,0.44066868603018444,0.0,88.35362999726239,64.9134116940576,1.3069932972438338,0.0,8.707401291097433,6.368059909746814,0.16867278363079205,0.0,5045.0,35.1465478,-92.3369277
Arkansas,Franklin County,18125,7037,2.466206896551724,1.776551724137931,1.1475862068965517,0.03310344827586207,0.0,22.124137931034483,17.875862068965517,0.8662068965517241,0.0,40.67310344827586,31.895172413793105,1.886896551724138,0.0,90.94620689655173,74.54896551724138,4.673103448275862,0.0,14.874482758620688,11.834482758620691,0.6013793103448276,0.0,5047.0,35.5085579,-93.8876647
Arkansas,Fulton County,12245,5196,1.347488770926909,1.5843201306655779,1.1923233973050225,0.18783176806859944,0.0,19.869334422213146,18.677011024908126,3.3809718252347896,0.0,46.89260922825643,43.13597386688444,5.928950592078399,0.0,94.36504695794203,87.97060024499795,13.907717435688035,0.0,21.15965700285831,19.48550428746427,2.6133115557370354,0.0,5049.0,36.3813225,-91.8192849
Arkansas,Garland County,96024,40994,2.25568607848038,2.6868282929267684,1.4090227443139214,0.026035157877197367,0.0,18.828626176789136,14.1516704157294,0.6165125385320337,0.0,35.5129967508123,24.236649171040572,0.9851703740731483,0.0,88.57993834874614,65.99704240606515,2.602474381404649,0.0,18.57868866116804,13.86111805381988,0.37907189869199365,0.0,5051.0,34.5788522,-93.1469323
Arkansas,Grant County,17853,6933,0.8009858287122612,0.7785806307063239,0.5601299501484345,0.09522209152523387,0.0,21.77785246177113,17.991373998767717,2.8510614462555313,0.0,32.252282529546854,25.94521929087548,3.8032823615078697,0.0,90.7298493250434,74.92298213185458,11.168991205959783,0.0,13.29188371702235,10.586456057805412,1.590769058421554,0.0,5053.0,34.2855683,-92.4229794
Arkansas,Greene County,42090,16425,1.4302684723212165,1.4373960560703254,0.7365169874079354,0.023758612497030172,0.0,22.941316227132337,16.28415300546448,1.0287479211214066,0.0,34.92753623188406,22.466143977191734,1.2900926585887385,0.0,90.3943929674507,63.585174625801855,4.426229508196721,0.0,12.627702542171537,8.372535043953434,0.7127583749109052,0.0,5055.0,36.1206072,-90.5663459
Arkansas,Hempstead County,22609,8839,1.3313282321199522,2.560927064443363,1.4374806492989518,0.22999690388783225,0.0,23.46410721394135,17.01092485293467,3.259763810871777,0.0,43.61979742580389,30.642664425671196,5.758768631960724,0.0,92.18452828519617,70.75058604980318,13.71577690300323,0.0,14.26423105842806,12.065991419346279,2.3265071431730724,0.0,5057.0,33.735953,-93.6643553
Arkansas,Hot Spring County,32923,12664,4.771740120888133,1.7009385535947514,1.2939282568417216,0.31892597879901585,0.0,21.860097803966834,17.972238252893113,3.186222397715883,0.0,37.72438720651217,29.338152659235185,5.042067855298727,0.0,93.85535947513895,79.07541840051027,13.270358108313337,0.0,14.713118488594597,12.425963612064514,2.1899583877532427,0.0,5059.0,34.3151767,-92.9441474
Arkansas,Howard County,13789,5365,1.312640510551889,2.4874900282834145,1.5447095510914497,0.4713902385959823,0.0,23.591268402349698,19.08042642686199,5.925012691275654,1.2981361955181667,41.98999202262673,32.598448038291394,11.34962651388788,2.480237870766553,91.52222786278918,75.2121256073682,24.96917833055334,5.1200232069040545,14.294002465733554,12.20538110087751,4.29327724998187,0.8122416418884618,5061.0,34.0830639,-93.9909315
Arkansas,Independence County,36647,14391,2.4558626899882663,1.5117199225038884,1.0669359019837912,0.051845990121974515,0.0,22.06729063770568,17.734057358037493,1.60722569378121,0.0,38.85447649193659,30.96569978442983,2.7669386307201136,0.0,91.4454116298742,73.20653805222801,6.6553878898682015,0.0,13.875624198433705,10.800338363303954,1.0560209566949545,0.0,5063.0,35.7374992,-91.5599423
Arkansas,Izard County,13696,5731,5.614778037383177,1.6939252336448596,1.1609228971962617,0.014602803738317755,0.0,17.85922897196262,15.179614485981308,0.21904205607476634,0.0,39.223130841121495,32.55695093457944,0.3212616822429906,0.0,94.47283878504673,80.39573598130842,0.9199766355140186,0.0,22.08674065420561,17.76431074766355,0.1971378504672897,0.0,5065.0,36.0948792,-91.9136252
Arkansas,Jackson County,17997,6724,11.112963271656387,1.8558648663666168,1.289103739512141,0.038895371450797356,0.0,17.84741901428016,14.263488359170973,0.889037061732511,0.0,44.92971050730677,36.528310273934544,2.317052842140357,0.0,86.68667000055564,70.62288159137634,4.561871423014947,0.0,13.468911485247542,9.946102128132466,0.8668111351891982,0.0,5067.0,35.5964674,-91.2232051
Arkansas,Jefferson County,77435,28873,7.141473493898108,3.0490088461290115,1.4592884354620004,0.13688900368050622,0.0,19.234196422806225,10.637308710531414,0.6560340931103507,0.0,37.32679021114483,20.972428488409633,1.6865758377994446,0.0,84.5250855556273,53.39316846387293,2.9121198424485053,0.0,11.607154387550848,7.889197391360496,0.5010654096984568,0.0,5069.0,34.277239,-91.929673
Arkansas,Johnson County,25540,9812,2.1848081440877056,1.609240407204385,1.311667971808927,0.1644479248238058,0.003915426781519186,22.490211433046202,18.794048551292093,1.7971808927173063,0.01957713390759593,45.207517619420514,37.13390759592796,4.455755677368833,0.0822239624119029,89.64761158966328,75.51292090837902,8.60610806577917,0.14487079091620989,13.480814408770556,11.25685199686766,1.581832419733751,0.03915426781519186,5071.0,35.5733586,-93.4663223
Arkansas,Lafayette County,7645,3150,1.4519293655984304,3.4532374100719423,3.1393067364290386,1.1510791366906474,0.0,21.085676913015043,19.51602354480052,5.467625899280575,0.0,45.768476128188354,41.8705035971223,11.353826030085024,0.0,91.7724002616089,84.43427076520602,21.04643557880968,0.0,17.724002616088946,16.481360366252453,3.7148463047743623,0.0,5073.0,33.2406294,-93.611514
Arkansas,Lawrence County,17415,6938,3.4165948894631066,1.7858168245765145,1.027849554981338,0.31007751937984496,0.0,19.94257823715188,16.009187482055697,5.587137525122021,0.0,37.41027849554982,29.526270456503013,9.991386735572782,0.0,85.3402239448751,68.33763996554694,24.094171691070915,0.0,14.533448176859029,11.501579098478324,4.335343095033018,0.0,5075.0,36.0410983,-91.1011529
Arkansas,Lee County,10424,3624,16.845740598618573,4.518419033000767,2.446277820414428,0.4125095932463545,0.0,17.805065234075208,12.691864927091329,2.935533384497314,0.0,46.62317728319263,35.283960092095164,13.6703760552571,0.0,92.70913277052955,73.36914811972372,29.978894858019956,0.0,14.62010744435917,11.339217191097466,2.94512663085188,0.0,5077.0,34.7795048,-90.7797172
Arkansas,Lincoln County,14134,4207,24.373850290080657,2.5965756332248477,2.4550728739210417,0.48110938163294187,0.0,19.053346540257536,17.227960945238433,2.497523701712183,0.0,46.724211122116884,44.50969293901231,17.503891325880854,0.0,98.37271826800622,92.8328852412622,33.217772746568556,0.0,11.971133437102024,11.065515777557662,1.6697325597849157,0.0,5079.0,33.9563846,-91.742355
Arkansas,Little River County,13171,5411,0.9338698656138487,2.9154961658188445,2.513096955432389,0.045554627590919446,0.0,22.15473388505049,18.76091412952699,0.7896135449092704,0.0,38.73661832814517,31.060663579075243,0.987016931136588,0.0,93.37180168552122,80.2444765014046,3.0825298003188824,0.0,15.830233087844507,13.499354642775796,0.5998025966137727,0.0,5081.0,33.7019411,-94.2362871
Arkansas,Logan County,22353,8704,2.5947300138683844,1.3778911108128664,0.7247349349080661,0.03131570706392878,0.0,22.20730998076321,18.09600501051313,1.6105220775734799,0.0,42.728045452511964,33.67333243859885,3.1942021205207354,0.0,90.22949939605422,72.84928197557375,6.732877018744688,0.0,14.991276338746475,11.604706303404464,1.0289446606719457,0.0,5083.0,35.2186538,-93.7209102
Arkansas,Lonoke County,68356,25295,0.8367955995084558,1.2610451167417638,0.9201825735853473,0.02194394054655041,0.0,24.689858973608754,19.271168587980572,0.3276961788284862,0.0,28.0604482415589,21.87664579554099,0.5047106325706594,0.0,89.09678740710399,70.3288665223243,1.3722277488442858,0.0,9.5617063608169,7.512142313769091,0.22821698168412427,0.0,5085.0,34.7551137,-91.894132
Arkansas,Madison County,15717,6174,0.5026404530126615,1.6542597187758479,1.49519628427817,0.5471782146720112,0.06998791117897818,21.28905007316918,19.71114080295222,5.592670356938347,0.15906343449767768,38.989629064070755,36.55277724756633,10.988102055099572,0.44537761659349745,89.94719093974678,84.9716867086594,26.15002863141821,1.0180059807851372,13.730355665839536,13.087739390468919,4.5046764649742315,0.23541388305656297,5087.0,36.0125452,-93.7240531
Arkansas,Marion County,16653,7411,0.8466942893172402,2.5881222602534075,2.0536840208971356,0.22818711343301507,0.0,16.003122560499612,13.481054464661021,1.717408274785324,0.0,42.05848796012731,35.326968113853354,3.2066294361376326,0.0,90.71638743769891,77.48753978262175,10.034228067014952,0.0,21.59370683960848,17.798594847775178,2.185792349726776,0.0,5089.0,36.2666636,-92.6785765
Arkansas,Miller County,43462,17219,3.4052735723160463,2.8599696286411116,1.6244075284156274,0.029911186783857163,0.0,21.46472780820027,15.190281165155769,0.34282821775343975,0.0,38.734986885095026,23.086834476094058,0.8099029036859785,0.0,90.38470387925084,64.36887395886062,1.8429892779899684,0.0,12.673139754268096,9.277069624039392,0.42105747549583544,0.0,5091.0,33.3055054,-93.9015018
Arkansas,Mississippi County,46480,17741,1.6501721170395869,2.934595524956971,1.65447504302926,0.004302925989672978,0.0,22.40748709122203,13.782271944922547,0.05163511187607572,0.0,40.73149741824441,24.68803786574871,0.10542168674698796,0.0,79.79130808950086,50.22160068846816,0.21514629948364886,0.0,9.709552495697075,6.110154905335628,0.030120481927710847,0.0,5093.0,35.7669437,-90.0522072
Arkansas,Monroe County,8149,3481,1.0308013253159898,4.2091054117069575,2.466560314148975,0.04908577739599951,0.0,18.456252300895816,11.731500797643884,1.6198306540679837,0.0,39.72266535771261,26.309976684255737,3.3132899742299666,0.0,79.8257454902442,52.84083936679347,8.455025156460916,0.0,15.327033991900846,10.565713584488895,1.889802429745981,0.0,5095.0,34.6795117,-91.2033099
Arkansas,Montgomery County,9487,4000,1.2754295351533678,2.25571835142827,2.0449035522293664,0.5375777379572045,0.0,20.153894803415202,18.85738378834194,4.690629282175609,0.0,42.46864129861916,40.139137767471276,10.530199219985242,0.0,95.79424475598188,88.47897122377991,23.052598292400127,0.0,20.9233688204912,18.55170232950353,4.975229261094129,0.0,5097.0,34.5456557,-93.664153
Arkansas,Nevada County,8997,3697,1.745026119817717,2.1118150494609313,1.3226631099255308,0.444592641991775,0.0,20.973657885961988,16.449927753695675,5.768589529843282,0.0,47.049016338779595,36.72335222852062,12.82649772146271,0.0,90.26342114038013,72.93542291875069,26.075358452817603,0.0,15.97199066355452,13.582305212848727,5.1239301989552075,0.0,5099.0,33.6666991,-93.3050716
Arkansas,Newton County,8330,3571,0.6122448979591837,1.5726290516206485,1.452581032412965,0.7322929171668667,0.060024009603841535,20.78031212484994,20.036014405762305,5.618247298919568,0.38415366146458585,41.6686674669868,40.10804321728691,11.35654261704682,0.7202881152460985,98.9795918367347,95.96638655462185,28.87154861944778,1.6326530612244898,19.71188475390156,19.15966386554622,6.062424969987995,0.31212484993997597,5101.0,35.9107423,-93.2158984
Arkansas,Ouachita County,26120,11003,1.3476263399693722,3.621745788667688,2.186064318529862,0.7695252679938744,0.0,20.470903522205205,15.206738131699845,4.119448698315467,0.0,42.568912710566615,30.85375191424196,8.606431852986217,0.0,88.4800918836141,67.66079632465544,18.77105666156202,0.0,15.07656967840735,11.370597243491577,3.2197549770290963,0.0,5103.0,33.5911684,-92.8784131
Arkansas,Perry County,10445,4170,1.4552417424605075,2.0679751077070367,2.029679272379129,0.3063666826232647,0.0,21.541407371948303,19.674485399712783,3.1402584968884635,0.0,36.26615605552896,33.03015797032073,5.3135471517472475,0.0,94.65773097175682,87.19004308281474,14.265198659645764,0.0,15.921493537577788,14.293920536141695,2.690282431785543,0.0,5105.0,34.9463629,-92.9268773
Arkansas,Phillips County,21757,8491,1.1306705887760262,6.384152226869514,4.678953899894287,1.2501723583214597,0.02298110952796801,25.89051799420876,19.400652663510595,5.58900583720182,0.018384887622374408,49.17038194604035,37.65684607252838,11.724962081169279,0.12409799145102725,93.06889736636485,72.96961897320404,22.415774233579995,0.22521487337408652,14.032265477777267,11.596267867812658,4.118214827411867,0.036769775244748816,5107.0,34.4236874,-90.8555931
Arkansas,Pike County,11291,4457,1.735895846249225,1.576476839961031,1.3373483305287397,0.4694004074041272,0.0,20.74218404038615,17.465237800017714,5.003985475157205,0.10627933752546276,38.34027101231069,31.10441944911877,9.370294925161634,0.23912850943229122,83.8543973075901,70.96802763262777,23.06261624302542,0.4428305730227615,13.807457266849704,11.78814985386591,4.614294570897175,0.03542644584182092,5109.0,34.1581907,-93.6586589
Arkansas,Poinsett County,24583,9754,1.3871374527112232,2.3756254322092505,1.647479965830045,0.09762844241955823,0.0,20.34332668917545,14.241549037953058,1.37900174917626,0.0,40.47105723467437,29.691250050848144,2.538339502908514,0.0,83.08587235081154,59.05300410853028,6.386527274946101,0.0,12.626611886262864,9.018427368506691,1.138998494894846,0.0,5111.0,35.5688702,-90.6811037
Arkansas,Polk County,20662,8450,0.750169393088762,2.10531410318459,1.776207530732746,0.6824121575839706,0.004839802536056529,21.67747555899719,19.175297647855967,8.106669247894686,0.06291743296873488,45.252153712128546,39.386313038428035,16.94414867873391,0.1355144710095828,89.812215661601,79.00977640112283,32.32988094085761,0.22747071919465683,16.852192430548836,14.22417965347014,5.01887522989062,0.029038815216339175,5113.0,34.4909149,-94.2308841
Arkansas,Pope County,61754,23353,5.392363247724844,1.7440165819218187,0.9845516079930046,0.035625222657641606,0.003238656605240146,20.620526605564013,15.448392006995498,0.6056287851799074,0.045341192473362046,37.893901609612335,24.898791981086248,1.0217961589532663,0.10525633967030476,89.68002072740228,66.43942092819898,2.582828642679017,0.21537066424846973,11.52637885804968,8.671503060530492,0.42264468698383917,0.053437833986462416,5115.0,35.456557,-93.0268181
Arkansas,Prairie County,8715,3685,1.5031554790590935,1.996557659208262,1.3884107860011474,0.05737234652897303,0.0,16.362593230063112,12.449799196787147,1.02122776821572,0.0,33.826735513482504,25.094664371772808,2.1457257601835913,0.0,78.23293172690762,59.85083189902467,4.452094090648308,0.0,16.06425702811245,12.105565117613311,0.8032128514056224,0.0,5117.0,34.8311162,-91.5536205
Arkansas,Pulaski County,382748,158772,2.0739494393177753,2.529601722282024,1.203925298107371,0.0005225370217479909,0.0,19.923814102229144,11.6776573620241,0.029523341728761483,0.0,30.936543104078922,17.510476867286048,0.02534304555477756,0.0,80.84248644016428,46.74145913237953,0.15179700481779135,0.0,9.550147877977155,5.309498677981335,0.022730360446037604,0.0,5119.0,34.7703106,-92.312996
Arkansas,Randolph County,17969,7299,1.9422338471812566,1.5693694696421616,1.096332572764205,0.3450386777227447,0.0,18.99938783460404,15.081529300461908,3.405865657521287,0.0,38.3660749067839,30.112972341254384,7.974845567366019,0.0,82.03016305860092,66.34759864210585,13.83493794868941,0.0,15.025877900829206,12.232177639267627,2.543268963214425,0.0,5121.0,36.3412985,-91.0284409
Arkansas,Saline County,107118,41441,1.3303086316025317,1.3499131798577269,0.9774267630090181,0.004667749584570287,0.0,22.374390858679213,16.918725144233463,0.3202076215015217,0.0,22.99706865326089,17.339756156761702,0.4677085083739428,0.0,91.75862133348271,70.60251311637633,2.4468343322317443,0.0,13.707313430049103,11.173658955544354,0.7879161298754646,0.0,5125.0,34.6485246,-92.674463
Arkansas,Scott County,11233,4368,0.7032849639455176,2.4125344965725986,1.718151873942847,0.31158194605181166,0.0,23.181696786254786,19.1934478767916,3.667764622095611,0.12463277842072465,49.042998308555156,39.96261016647378,8.412712543398913,0.4273123831567702,90.82168610344522,76.68476809400873,16.23787055995727,0.756699011840114,15.285320039170303,12.783762129440044,3.3739873586753317,0.14243746105225674,5127.0,34.8588693,-94.0636413
Arkansas,Searcy County,8195,3574,0.8663819402074436,2.9774252593044537,2.7455765710799267,0.8907870652837095,0.0,19.768151311775473,18.230628431970715,6.540573520439293,0.0,48.22452715070165,44.758999389871875,14.643075045759609,0.0,96.81513117754729,88.77364246491763,32.86150091519219,0.0,20.41488712629652,18.194020744356315,6.516168395363025,0.0,5129.0,35.8963868,-92.6958884
Arkansas,Sebastian County,125744,49599,1.7774207914492937,1.849790049624634,0.5383954701615982,0.002385799720066166,0.0,19.253403740933962,8.92686728591424,0.05169232726810026,0.0,31.68262501590533,12.644738516350682,0.10179412138948975,0.0,76.88080544598549,35.99296984349154,0.22903677312635196,0.0,10.20804173558977,4.798638503626416,0.0357869958009925,0.0,5131.0,35.1969808,-94.2749889
Arkansas,Sevier County,17058,5975,1.0141868917809824,1.4714503458787667,1.1197092273420095,0.15828350334154062,0.0,26.808535584476488,21.29206237542502,3.576034705123696,0.0,42.3320436158987,31.568765388673935,5.985461367100481,0.0,92.15617305663032,75.40157111032947,15.382811584007502,0.0,11.935748622347287,9.983585414468285,2.4856372376597493,0.0,5133.0,33.9948773,-94.2432792
Arkansas,Sharp County,17264,7360,1.0947636700648748,1.5176088971269694,1.1642724745134383,0.03475440222428174,0.0,20.01274328081557,17.800046339202964,1.59870250231696,0.0,50.046339202965704,45.07645968489342,4.5875810936051895,0.0,93.81950880444856,84.4821594068582,7.59383688600556,0.0,22.532437442076,20.34870250231696,1.4712696941612604,0.0,5135.0,36.1733989,-91.4710689
Arkansas,St. Francis County,28258,9616,14.45608323306674,4.221813291811168,3.535282044022932,0.8776275744921793,0.0,22.156557435062638,19.116710312124,2.894755467478236,0.0,41.761625026541154,35.31743223158044,5.959374336471088,0.0,94.77670040342558,85.10864180055205,11.34545969283035,0.0,11.455163139641872,10.421827447094628,1.6420128813079482,0.0,5123.0,35.0228383,-90.7515058
Arkansas,Stone County,12394,5325,1.2183314507019527,1.6540261416814588,1.3635630143617878,0.7100209778925287,0.0,20.098434726480555,18.928513796998548,5.591415200903663,0.0,45.852832015491366,41.13280619654672,10.84395675326771,0.0,96.05454252057447,89.10763272551235,24.987897369695013,0.0,21.115055672099402,18.863966435371953,4.671615297724705,0.0,5137.0,35.8570011,-92.1404819
Arkansas,Union County,41639,16951,1.2584356012392228,1.7291481543745046,1.0014649727419005,0.06964624510675088,0.0,21.87852734215519,16.68627968971397,2.1374192463795962,0.0,37.693028170705354,27.851293258723793,3.91459929393117,0.0,90.09102043757055,69.67506424265713,9.55354355291914,0.0,14.010903239751194,10.862412641994284,1.5970604481375634,0.0,5139.0,33.1682186,-92.5981447
Arkansas,Van Buren County,17295,7433,1.092801387684302,2.260769008383926,1.9254119687771032,0.2023706273489448,0.0,19.317721884937843,17.66406475860075,2.139346631974559,0.0,44.85111303845042,39.843885516045106,6.730268863833477,0.0,94.22376409366869,83.67158138190229,10.401850245735762,0.0,21.29517201503325,17.536860364267127,2.0294882914137036,0.0,5141.0,35.5829532,-92.5159757
Arkansas,Washington County,203065,76389,3.7244232142417455,1.6571048678994411,0.8007288306699825,0.007879250486297491,0.0,19.822716864058307,11.295398025262847,0.15807746288134342,0.0,28.136311033412948,13.594661807795532,0.3008888779454854,0.0,75.66936695146875,42.75084332602861,0.7076551843005934,0.0,7.5827936867505485,4.600004924531554,0.11375667889592003,0.0,5143.0,35.978001,-94.2172695
Arkansas,White County,77076,29342,4.2192122061342054,1.795630286989465,1.2221703253931187,0.10249623747988998,0.0,20.52389848980227,16.25149203383673,1.4336499039908661,0.0,32.70538170117806,25.430743681561058,2.1991281332710573,0.0,81.74529036275884,64.04198453474493,6.084903212413722,0.0,11.719601432352484,8.765374435621984,0.8679744667600809,0.0,5145.0,35.2551175,-91.7530339
Arkansas,Woodruff County,7260,3134,1.4600550964187327,4.6143250688705235,4.462809917355372,0.27548209366391185,0.0,22.727272727272727,21.790633608815426,1.2947658402203857,0.0,45.123966942148755,42.79614325068871,3.2231404958677685,0.0,99.25619834710744,95.12396694214877,6.694214876033058,0.0,17.768595041322314,17.148760330578515,1.3360881542699725,0.0,5147.0,35.1927768,-91.2445353
Arkansas,Yell County,22185,8219,1.4559386973180077,1.4559386973180077,0.9781383817894973,0.11719630380887987,0.0,23.89452332657201,18.435880099166102,2.105025918413342,0.06310570205093533,42.754113139508675,34.16723011043498,5.503718728870859,0.12170385395537525,92.4814063556457,74.99661933739013,10.362857786792878,0.28848320937570426,14.518819021861617,12.364210051836826,2.114041018706333,0.0676132521974307,5149.0,34.9977133,-93.4083032
California,Alameda County,1510271,545138,2.4791577140791285,0.9970396041505134,0.12348777139996729,0.00013242656450398636,0.0,10.171684419551193,2.1006825927267356,0.0010594125160318909,0.0,8.587200575260995,1.176874878746927,0.0009269859515279046,0.0,43.81763272949027,8.869335370936739,0.008011807152491175,0.0,4.918587458807062,1.1113237293174536,0.0012580523627878704,0.0,6001.0,37.6471385,-121.912488
California,Alpine County,1175,497,2.0425531914893615,2.553191489361702,2.553191489361702,1.6170212765957446,0.3404255319148936,21.78723404255319,21.78723404255319,9.957446808510637,1.5319148936170213,35.57446808510638,35.57446808510638,16.76595744680851,2.382978723404255,100.0,100.0,56.93617021276596,10.297872340425531,14.127659574468085,14.127659574468085,8.851063829787234,1.446808510638298,6003.0,38.6217831,-119.7983522
California,Amador County,38091,14569,11.947704182090257,1.7143157176235855,1.20500905725762,0.0026252920637420915,0.0,13.937675566406762,10.020739807303562,0.02100233650993673,0.0,21.842429970334198,16.702108109527185,0.09451051429471528,0.0,86.6530151479352,67.58026830484891,0.17326927620697802,0.0,18.251030427135017,13.82216271560211,0.03412879682864718,0.0,6005.0,38.4435493,-120.653858
California,Butte County,220000,87618,2.246363636363636,1.791818181818182,0.7890909090909091,0.006818181818181819,0.0,15.866818181818182,8.719545454545456,0.10181818181818182,0.0,28.130454545454548,13.905000000000001,0.20363636363636364,0.0,73.60272727272728,41.06363636363636,0.5286363636363637,0.0,11.991363636363635,7.735,0.09227272727272727,0.0,6007.0,39.6653362,-121.6032086
California,Calaveras County,45578,18886,1.0816622054499978,0.8205713282724122,0.6406599675281934,0.006582122954056782,0.004388081969371188,16.85242880337005,13.412172539383036,0.03949273772434069,0.01755232787748475,27.18855588222388,22.534994953705738,0.057045065601825436,0.024134450831541535,87.40181666593531,71.2470928956953,0.20843389354513142,0.08337355741805257,18.447496599236473,14.98749396638729,0.026328491816227127,0.004388081969371188,6009.0,38.1910682,-120.5541065
California,Colusa County,21419,7056,1.0504692095802792,1.1531817545170175,0.7470003268126431,0.518231476726271,0.12138755310705449,20.575190251645736,13.347962089733414,8.604510014473131,0.3034688827676362,24.13277930809095,14.963350296465755,10.27592324571642,0.9384191605583828,71.25916242588356,47.093701853494565,29.805313039824455,2.1242821793734534,8.837947616602083,6.190765208459779,3.552920304402633,0.6302815257481675,6011.0,39.1777385,-122.2375629
California,Contra Costa County,1049025,375364,0.9831986844927433,0.9526941683944615,0.2740640118205,0.0,0.0,15.466170968280068,6.094611663211077,0.0,0.0,11.32260908939253,3.117752198470008,0.0,0.0,62.04351659874645,24.472248039846527,0.0,0.0,8.055861395104978,3.4228926860656324,0.0,0.0,6013.0,37.919479,-121.9515431
California,Del Norte County,28610,9907,13.344984271233834,2.499126179657462,1.3736455784690669,0.45438657811953864,0.02097168822090178,18.388675288360712,12.670394966794825,2.2474659210066408,0.17825934987766515,38.469066759874174,26.955609926599088,5.382733310031457,0.3390422929045788,87.90632645927997,66.25305837119888,10.286613072352324,0.6221600838867529,11.971338692764768,8.95141558895491,1.6777350576721428,0.09786787836420832,6015.0,41.7499033,-123.9809983
California,El Dorado County,181058,70223,0.9074440234620951,1.1924355731312617,0.7400943344121773,0.0,0.0,19.793104971887463,15.005688784809287,0.017121585348341416,0.0,17.983740017011122,12.988655568933712,0.02485391421533431,0.0,87.06547073313524,66.60186238663853,0.11432800539053783,0.0,12.741773354394725,10.1403969998564,0.017121585348341416,0.0,6017.0,38.7856116,-120.5342245
California,Fresno County,930450,289391,1.8832822827664033,1.2646568864527916,0.2766403353216186,0.009887688752754044,0.00376162072115643,17.702187113762157,6.830673330109087,0.17744102316083615,0.010317588263743351,26.36143801386426,9.198237412004943,0.2702993175345263,0.009887688752754044,59.930678703852976,23.25433929818905,0.7252404750389596,0.038261056478048255,5.97549572787361,2.3121070449782364,0.09726476436133054,0.0013971734107152453,6019.0,36.7610058,-119.6550193
California,Glenn County,28122,9800,1.1236754142664107,1.244577199345708,0.7503022544626983,0.09956617594765664,0.007111869710546903,21.07958182206102,11.752364696678756,1.0987838702794965,0.035559348552734515,32.881729606713606,17.59476566389304,1.841974255031648,0.23113576559277435,75.78763957044306,44.65187397766873,5.049427494488301,0.6400682739492213,10.233980513476993,6.329564042386744,0.7751937984496124,0.07111869710546903,6021.0,39.6025462,-122.4016998
California,Humboldt County,134623,56031,3.7244750154134136,1.487115871730685,0.7688136499706588,0.07873840279892738,0.0007428151207445979,13.309018518380961,7.671794567050207,0.6514488608930123,0.0007428151207445979,25.740029564041805,14.472266997467,1.6215654085854574,0.007428151207445978,65.35213150798897,37.167497381576695,3.608595856577256,0.014113487294147358,8.985091700526656,5.154394122846765,0.5125424333137726,0.0,6023.0,40.7066554,-123.9261757
California,Imperial County,174528,49126,6.121653832049872,1.2072561422808947,0.40337367070040336,0.07677851118445178,0.04583791712504584,19.105243857719106,7.1621745507884125,1.1092775944261093,0.23434635130179685,31.855633480014667,14.271062522918958,3.237875870920425,0.5861523652365237,65.72183259992666,28.873876971030437,6.770833333333333,1.2450724239090576,6.168637697103044,2.7130317198386504,0.8777961129446278,0.41139530619728637,6025.0,33.0408143,-115.3554001
California,Inyo County,18546,8049,2.334735252884719,1.2293756065998058,0.819583737733204,0.48527984471044966,0.3235198964736331,13.57705165534347,9.985980804486143,3.7528307990941445,0.7279197670656745,17.583306373341962,12.956971853769005,6.238542003666559,2.2592472770408714,68.76415399547072,52.84697508896797,22.781192710018335,6.389517955354254,13.884395556993423,10.53596462849132,4.443006578237895,1.2563355979726087,6027.0,36.5621604,-117.4042092
California,Kern County,839631,254610,4.377756419188906,1.1069148232973771,0.4057734885920124,0.11183484173404745,0.020246989451318496,18.175722430448612,7.606913036798307,0.9198088207796045,0.09301705153811615,26.092414405852093,10.011183484173406,1.744218591262114,0.16781181257004565,62.85475405267314,29.489501935969493,3.692098076416902,0.3483673185006271,5.855072049507462,2.833625723680998,0.4403124705972028,0.04835457480726653,6029.0,35.3466288,-118.7295064
California,Kings County,152982,41233,14.106234720424627,0.8929155063994456,0.2830398347518009,0.0,0.0,18.117817782484213,9.12394922278438,0.015688120171000512,0.0,22.998130499012955,10.323436744192128,0.04967904720816828,0.0,69.08329084467454,41.32512321711051,0.0647134957053771,0.0,4.899269195068701,2.615994038514335,0.00915140343308363,0.0,6031.0,36.072478,-119.8155301
California,Lake County,64665,26548,1.677878295832367,1.8928322894919973,1.210855949895616,0.0015464316090620892,0.0,16.480321657774684,11.398747390396661,0.013917884481558803,0.0,33.706023351117295,23.465553235908143,0.07268228562591819,0.0030928632181241784,79.7432923528957,57.533441583545965,0.12990025516121548,0.006185726436248357,14.381813964277429,10.645635196783422,0.02165004252686925,0.0015464316090620892,6033.0,39.0948019,-122.7467569
California,Lassen County,34895,10058,28.024072216649948,1.1720876916463678,0.5702822753976214,0.28370826766012325,0.04585184123799971,14.950565983665282,11.634904714142428,5.679896833357215,1.8340736495199885,18.59578736208626,14.136695801690788,8.393752686631323,3.668147299039977,87.6629889669007,74.6382003152314,28.345035105315947,11.78105745808855,8.322109184696949,6.8863734059320825,3.871614844533601,1.4930505803123657,6035.0,40.7152866,-120.6212225
California,Los Angeles County,9818605,3241204,1.748415380800022,0.7206115329010587,0.07619208635035221,0.0002749881475016054,0.0,9.288366320877559,1.7330465987785433,0.008229274932640635,0.0012832780216741585,11.601159227812913,1.5971617149279353,0.013168876841465768,0.002128611956586501,37.64555148109125,7.230731860585084,0.03868166608189249,0.006110847722257897,4.398404865049567,0.9134800717617217,0.004786830715768686,0.0007333017266709476,6037.0,34.1963983,-118.2618616
California,Madera County,150865,43317,5.716368939117754,0.974381069167799,0.6270506744440394,0.0006628442647399993,0.0,21.00553474961058,13.866702018360785,0.0934610413283399,0.0,32.099559208563946,21.067842110496137,0.13588307427169988,0.0,77.5905610976701,55.80949855831372,0.3937294932555596,0.0,9.586716600934611,7.260796075961953,0.05170185264971995,0.0,6039.0,37.2098213,-119.7498023
California,Marin County,252409,103210,3.583073503718172,0.7317488679088305,0.15054930687891477,0.0023770943191407596,0.0,10.239333779698823,3.3346671473679623,0.03209077330840026,0.0,6.1570704689610904,2.0589598627624213,0.053484622180667095,0.0,50.56753126869486,16.714934887424775,0.25474527453458473,0.0,8.952533388270624,3.3307053235027277,0.05269225740762017,0.0,6041.0,38.0513667,-122.7463958
California,Mariposa County,18251,7693,3.9723850747904224,1.2876006794148265,0.9204975069859185,0.2246452249191825,0.0,16.71689222508356,15.736124047997372,1.3369130458605007,0.0,32.37082899567147,30.09150183551586,2.6135554216207333,0.0,94.60303545011233,88.22530272313846,8.070790641608678,0.0,20.23450769820832,18.848282285902144,1.594433181743466,0.0,6043.0,37.5743432,-119.9117215
California,Mendocino County,87841,34945,2.3269316150772417,1.1065447797725436,0.7934791270591182,0.050090504434148066,0.0,13.542650926105122,9.901981990186815,0.7342812581823978,0.0,26.03567810020378,19.73793558816498,1.748613972973896,0.0,67.00515704511561,51.03767033617559,3.9025056636422626,0.0,11.117815143270226,8.531323641579672,0.5179813526713039,0.0,6045.0,39.4323876,-123.4428811
California,Merced County,255793,75642,1.9140476869969076,0.9832168980386484,0.42573487155629747,0.009382586700965234,0.0,20.119784356882324,9.777828165743394,0.17357785396785683,0.0,29.209556164554932,14.09069051928708,0.2556754876013026,0.0,64.40793923211346,32.78862204986063,0.5821113165723847,0.0,6.02557536758238,3.2280007662445804,0.06880563580707838,0.0,6047.0,37.1948063,-120.7228019
California,Modoc County,9686,4064,3.6857319843072474,0.8775552343588684,0.3613462729712988,0.1548626884162709,0.07226925459425976,18.06731364856494,14.082180466652902,6.752013214949412,2.3435886846995664,36.96056163534999,29.289696469130703,14.95973570101177,5.0588478215981825,84.31757175304563,68.21185215775346,35.99008878794136,12.874251497005988,17.354945281850092,14.567416890357215,8.445178608300639,2.9217427214536444,6049.0,41.5929185,-120.7183704
California,Mono County,14202,5768,1.563160118293198,0.7604562737642585,0.598507252499648,0.47880580199971834,0.3450218279115618,14.899309956344176,11.660329531051964,8.569215603436135,4.647232784114914,22.489790170398535,17.631319532460214,11.695535840022533,5.323193916349809,74.51063230530912,58.88607238417124,40.21264610618223,20.461906773693848,8.787494719053655,7.872130685818898,5.731587100408393,3.316434305027461,6051.0,37.9158363,-118.8751668
California,Monterey County,415057,125946,4.505887143211655,0.539925841510925,0.19684043396449163,0.008432576730424978,0.0007227922911792838,12.97363976514069,5.702349315877096,0.2869485395981757,0.030357276229529922,16.331491819195918,7.118299414297313,0.5110141498637536,0.05878710634924842,52.26366499059165,25.516495324738532,1.4026989064152635,0.2129827951341623,6.2275783808007095,3.3096659013099403,0.16889246537222596,0.03132099928443563,6053.0,36.2401044,-121.3155781
California,Napa County,136484,48876,3.6033527739515256,0.9385715541748484,0.32677823041528675,0.0029307464611236485,0.0,13.05354473784473,4.885554350693122,0.141408516749216,0.0,13.617713431611032,4.917792561765482,0.10623955921573226,0.0,60.3140294833094,25.775182438967203,0.6989830309779901,0.0,10.389496204683333,5.6409542510477415,0.08059552768090032,0.0,6055.0,38.5070999,-122.3259045
California,Nevada County,98764,41527,1.1897047507188854,0.8596249645619861,0.5832084565226197,0.009112632133165932,0.0,16.451338544408895,13.982827751002388,0.06885099833947592,0.0020250293629257626,21.907780162812358,18.05921185857195,0.0860637479243449,0.0020250293629257626,86.2328378761492,72.80081811186263,0.5295451784050869,0.014175205540480337,16.367299825847475,13.04118909724191,0.07290105706532746,0.0,6057.0,39.2975082,-120.7713429
California,Orange County,3010232,992781,1.303421131660284,0.5530802941434414,0.08637208029148584,0.0,0.0,10.551512308685842,2.145548914502271,0.0,0.0,9.494052285671005,1.1438653233372045,0.0,0.0,44.2898753318681,8.838122775918933,0.0,0.0,5.639864302817856,1.1727999702348522,0.0,0.0,6059.0,33.6756872,-117.7772068
California,Placer County,348432,132627,1.092609174817468,0.9559971529595445,0.44370207099233133,0.00660100105616017,0.00028700004592000736,17.51819580291133,9.662143545942968,0.06400101024016164,0.0011480001836800295,13.953368232538917,7.345766175322588,0.10590301694448272,0.001722000275520044,73.54634476741516,41.999873719979796,0.353297056527529,0.004879000780640125,12.327512972402076,7.585698213711714,0.05280800844928136,0.00028700004592000736,6061.0,39.0620323,-120.7227181
California,Plumas County,20007,8977,1.3845154196031388,1.3795171689908532,0.8147148498025691,0.0449842555105713,0.0,12.165741990303394,8.487029539661119,0.9446693657219973,0.0,19.21827360423852,12.875493577247962,1.0746238816414255,0.0,73.3293347328435,56.05038236617184,6.302794022092267,0.0,16.514220022991953,13.955115709501676,1.3845154196031388,0.0,6063.0,39.9922953,-120.8243709
California,Riverside County,2189641,686260,1.6362956301969136,0.8138320391333557,0.31000515609636464,0.0013700876079686122,4.566958693228707e-05,19.4476172121366,8.600222593566707,0.023976533139450713,0.0028315143898017983,22.91156404177671,9.617923668765794,0.05685863573069741,0.008357534408608534,69.82213065977481,31.704420953023803,0.4849653436339564,0.014111902362076706,8.740793582144288,4.1802286310861,0.05078458066870322,0.003105531911395521,6065.0,33.7298275,-116.0022389
California,Sacramento County,1418788,513945,1.676571834551744,1.0737333555118875,0.23816102194267222,0.0004933788557557578,0.0,14.987510466680012,4.727767643932709,0.029532248651666072,0.0,17.662822070668767,4.694147399047638,0.04503844126113274,0.0,58.16020434342551,18.760519542031652,0.1202434754170461,0.0,6.504988765058628,2.1285773491176974,0.017973086888245463,0.0,6067.0,38.4501363,-121.3443291
California,San Benito County,55269,16805,0.5228971032586078,0.39081582804103565,0.27139988058405257,0.009046662686135085,0.001809332537227017,17.284553728129694,9.522517143425791,0.22978523222783118,0.0524706435795835,14.36248168050806,7.49606470173153,0.45233313430675426,0.11760661491975612,62.096292677631226,36.92666775226619,1.2520581157610957,0.322061191626409,6.504550471331126,4.537806003365358,0.21169190685556097,0.07599196656353471,6069.0,36.6116507,-121.0858108
California,San Bernardino County,2035210,611618,1.9680524368492684,0.8768628298799633,0.40344731010559104,0.01626367794969561,0.0065349521670982355,18.863753617562807,8.474309776386713,0.26179116651352935,0.1800796969354514,24.133676623051183,10.905754197355556,0.462949769311275,0.25992403732292985,65.51171623567102,30.798443403874785,0.9583777595432411,0.5638238805823478,6.068120734469662,3.131519597486254,0.09261943484947499,0.016607622800595516,6071.0,34.8566615,-116.1815707
California,San Diego County,3095313,1086865,3.2942064340504498,0.6546026201550538,0.1672528755573346,0.0026814735698780707,9.692073144137604e-05,12.504098939267209,4.520802904262024,0.06180311974911746,0.008658252008762926,12.595269040643062,4.105400649304287,0.10864813994578254,0.013019684923624847,53.89842642731123,19.77312149045993,0.3212599178176811,0.04739423767483288,6.53139117110289,2.484336802126312,0.054663292532936086,0.0076244308733882495,6073.0,33.0236041,-116.7761174
California,San Francisco County,805235,345811,3.013281836979267,0.5110309412780121,0.04917819021776252,0.0,0.0,1.7986053760703398,0.1169844827907381,0.0,0.0,2.5478276527970096,0.30252038224866035,0.0,0.0,9.959080268493048,0.5844256645575515,0.0,0.0,1.3377461238023682,0.01713785416679603,0.0,0.0,6075.0,37.7272391,-123.0322294
California,San Joaquin County,685306,215007,2.094538789971195,1.0939638643175458,0.27272488494190916,0.0004377606499870131,0.0,17.688448663808575,6.979363962959612,0.003939845849883118,0.0,20.82908948703207,7.338035855515638,0.013278739716272732,0.0,60.68632114704964,24.39333669922633,0.03370757004900001,0.0,6.275882598430482,2.453064762310559,0.006566409749805197,0.0,6077.0,37.9349815,-121.272244
California,San Luis Obispo County,269637,102016,6.306997926842385,1.0491883532304542,0.3849620044726799,0.018914318138831095,0.009271724577858381,13.590123017241698,6.627057859270055,0.3686437692156492,0.046729491872406236,18.83198522457971,8.556689178413942,0.5051235550017246,0.10310157730578517,72.60316647937783,37.04647359227406,1.4879263602547128,0.23142224546334514,11.536621457737626,6.121192566302103,0.19618969206748332,0.04747122983863491,6079.0,35.3881891,-120.4488974
California,San Mateo County,718451,257837,1.2322343486194605,0.46669849439975725,0.12958434186882611,0.002783766742617103,0.0,8.779721929540079,2.6191069397913007,0.04843754132153759,0.0,4.519306118301735,1.169321220236314,0.05790234824643573,0.0,38.61655144192157,11.805815567102002,0.19931769877138453,0.0,5.796776676488723,1.88321820138047,0.022966075626591097,0.0,6081.0,37.4146725,-122.3715457
California,Santa Barbara County,423895,142104,4.194906757569681,0.6997015770414844,0.18141284988027695,0.006133594404274643,0.0011795373854374314,12.43680628457519,4.863940362589792,0.17976149754066456,0.01014402151476191,15.330211491053209,5.314995458781066,0.21349626676417507,0.022647117800398683,54.28844407223487,21.045070123497563,0.7157432854834334,0.04859694028002218,8.07935927529223,3.1859304780665023,0.0877575814765449,0.007784946743887048,6083.0,34.5366774,-120.0383645
California,Santa Clara County,1781642,604204,1.7034847629321714,0.6252659063942139,0.10086201380524258,0.00011225599755730949,0.0,10.870477907458401,2.2876649742204105,0.0023012479499248447,0.0,7.1723163239303975,1.0925876242252932,0.0014031999694663687,0.0,44.40235468180476,9.435902386674764,0.013807487699549068,0.0,5.290400652880882,1.3232175712067857,0.0026380159425967733,0.0,6085.0,37.2216142,-121.6895401
California,Santa Cruz County,262382,94355,4.180545921595232,0.8510492335602291,0.349109313901106,0.0,0.0,11.816359353919095,5.723334679970424,0.0003811237051322118,0.0,15.025802074837452,6.890335465085258,0.0015244948205288473,0.0,59.3825033729448,30.374034804216755,0.005335731871850965,0.0,7.059173266458828,3.6873718471541492,0.0003811237051322118,0.0,6087.0,37.0123466,-122.0077889
California,Shasta County,177223,70346,1.4975482866219396,1.8112773172782315,0.8509053565282159,0.026520259785693733,0.0,17.244939990858974,10.59004756718936,0.370155115306704,0.0022570433860164877,27.541571917866193,16.493344543315484,0.9378015268898506,0.005642608465041219,78.1642337619835,50.149811254746844,2.3123409489738918,0.024827477246181364,13.611100139372429,9.322717705941102,0.49259971899809846,0.006206869311545341,6089.0,40.7605142,-122.0435558
California,Sierra County,3240,1482,1.0185185185185186,1.8827160493827162,1.8827160493827162,1.7592592592592593,0.0,17.037037037037038,17.037037037037038,15.771604938271604,0.4629629629629629,29.41358024691358,29.41358024691358,24.814814814814813,0.4629629629629629,100.0,100.0,88.24074074074075,3.2407407407407405,20.8641975308642,20.8641975308642,18.333333333333332,0.8641975308641975,6091.0,39.5769252,-120.5219926
California,Siskiyou County,44900,19505,1.0556792873051226,2.048997772828508,1.2583518930957684,0.30066815144766146,0.0467706013363029,16.403118040089087,12.325167037861915,2.6436525612472157,0.48997772828507796,33.20935412026726,24.472160356347437,6.759465478841871,1.204899777282851,81.07126948775056,61.71269487750557,14.017817371937639,2.1358574610244987,16.570155902004455,12.65478841870824,3.0111358574610247,0.3363028953229399,6093.0,41.5879861,-122.5332868
California,Solano County,413344,141758,3.012502903150886,0.7265135093287916,0.215317024076798,0.0,0.0,14.163263528683132,6.100971587829992,0.00387086784857165,0.0,12.485726174808393,4.492625996748472,0.0033870093675001938,0.0,59.26274483239142,25.798850352248976,0.014515754432143686,0.0,6.812243555005032,2.991455059224278,0.0014515754432143687,0.0,6095.0,38.2672255,-121.939594
California,Sonoma County,483878,185825,2.0755231690632763,0.8458743732924415,0.30916884007952417,0.00950652850511906,0.0,11.672983685970431,4.628026072687744,0.05393921608339293,0.0,12.156989985078884,5.112445699122506,0.10250517692476202,0.0,56.91889277875828,25.854037587987055,0.4275871190672029,0.0,8.951016578559058,4.786537102327446,0.1074651048404763,0.0,6097.0,38.5251824,-122.9261095
California,Stanislaus County,514453,165180,1.2255735703747475,0.983180193331558,0.23889451514521245,0.00019438121655428192,0.0,15.704252866636992,4.791885750496158,0.027602132750708032,0.0,19.918826403966932,5.841933082322389,0.039653768177073515,0.0,54.709370924068864,17.2412251459317,0.11954444818088339,0.0,5.718112247377311,1.9873535580509785,0.01807745313954822,0.0,6099.0,37.5623162,-121.0028311
California,Sutter County,94737,31437,1.118887024077182,1.062942672873323,0.5024436070384327,0.02744439870377994,0.0,20.075577651815024,11.309203373549934,0.34305498379724925,0.0,25.96134561997952,13.759143734760443,0.5562768506496933,0.0,73.0569893494622,42.205262991228345,1.4165531946335645,0.0,9.42398429335951,5.8435458163125285,0.21849963583394028,0.0,6101.0,39.0361898,-121.7039397
California,Tehama County,63463,23767,1.3267573231646785,2.150859555961741,1.25584986527583,0.11817909648141438,0.0031514425728377165,20.982304649953516,15.41528134503569,0.9391298867056395,0.03309014701479602,37.86300679135874,26.41696736681216,2.8741156264279972,0.15757212864188583,84.68241337472227,64.75899342924224,5.393693963411752,0.33405291272079796,13.893134582355074,11.340466098356524,1.112459228211714,0.04254447473330917,6103.0,40.1261573,-122.2322737
California,Trinity County,13786,6083,2.792688234440737,2.0890758740751485,1.610329319599594,0.3917017263890904,0.08704482808646452,16.008994632235602,12.469171623386044,2.3719715653561586,0.47149281880168287,38.18366458726244,32.090526621209925,7.674452342956623,1.5595531698824894,90.75148701581315,76.16422457565646,17.612070216161325,3.2569273175685476,18.576817060786304,16.197591759756275,3.9315247352386478,0.8341796024952851,6105.0,40.6478582,-123.114666
California,Tulare County,442179,130352,1.0792009570784682,0.9073248616510509,0.31548309621216747,0.010403026828501579,0.0004523055142826774,19.924736362423364,8.781511559798181,0.23203272882701348,0.0024876803285547255,30.323466288539258,14.107635143233848,0.4724331096682566,0.009272263042794885,61.60876025320062,27.755049425685073,0.84807283928002,0.019449137114155128,5.788605971789705,2.7425544858530144,0.1216701833420402,0.004749207899968112,6107.0,36.2288339,-118.7810551
California,Tuolumne County,55365,22156,8.095367109184503,1.417863271019597,1.07649236882507,0.0,0.0,15.76627833468798,13.548270568048407,0.15352659622505194,0.007224780998825973,25.47457780186038,21.750203196965593,0.5057346699178181,0.014449561997651947,90.51025015804208,78.473765013998,1.0548180258285922,0.0270929287455974,18.231734850537343,15.359884403504017,0.20590625846654023,0.007224780998825973,6109.0,38.0214344,-119.9647335
California,Ventura County,823318,266920,1.2874733699493999,0.6285542159894476,0.17016511238670842,0.0006072987594100942,0.00012145975188201886,12.937528391217,4.717010924090085,0.005708608338454886,0.0014575170225842261,10.745787168505974,3.1546741356316756,0.005587148586572868,0.0010931377669381698,52.72616413099192,19.308213837180773,0.039717338865420164,0.013239112955140055,6.909237985808643,2.5975382537488554,0.005465688834690848,0.0012145975188201884,6111.0,34.3587477,-119.1331453
California,Yolo County,200849,70872,3.3403203401560373,0.8264915433982744,0.1628088763200215,0.07468297078900069,0.0024894323596333563,11.434460714267933,4.428700167787741,0.8264915433982744,0.009957729438533425,12.403347788637236,3.7670090465971953,1.3537533171686191,0.01543448062972681,47.046288505295024,16.639365891789353,3.194439603881523,0.03833725833835369,4.865346603667431,1.7381216734960094,0.4520809165094175,0.005476751191193384,6113.0,38.6796091,-121.90275
California,Yuba County,72155,24307,1.6228951562608274,1.5937911440648604,0.8855935139629962,0.005543621370660384,0.0,23.814011503014342,17.18245443836186,0.08869794193056614,0.0,30.33746795093895,20.83985863765505,0.09701337398655673,0.0,81.68526089668076,59.2931882752408,0.389439401288892,0.0,7.968955720324302,6.042547294019818,0.062365740419929316,0.0,6115.0,39.27013,-121.3442587
